ident;iata_code;name;latitude_deg;longitude_deg;elevation_ft;continent;iso_country;iso_region;municipality
03N;UTK;Utirik Airport;11.222;169.852005;4;OC;MH;MH-UTI;Utirik Island
07FA;OCA;Ocean Reef Club Airport;25.325399398804;-80.274803161621;8;NA;US;US-FL;Key Largo
0AK;PQS;Pilot Station Airport;61.934601;-162.899994;305;NA;US;US-AK;Pilot Station
0CO2;CSE;Crested Butte Airpark;38.851918;-106.928341;8980;NA;US;US-CO;Crested Butte
0TE7;JCY;LBJ Ranch Airport;30.251800537100003;-98.62249755859999;1515;NA;US;US-TX;Johnson City
13Z;WLR;Loring Seaplane Base;55.6012992859;-131.636993408;0;NA;US;US-AK;Loring
16A;NUP;Nunapitchuk Airport;60.905591;-162.440454;12;NA;US;US-AK;Nunapitchuk
16K;PTC;Port Alice Seaplane Base;55.803;-133.597;0;NA;US;US-AK;Port Alice
19AK;ICY;Icy Bay Airport;59.966269;-141.660118;50;NA;US;US-AK;Icy Bay
19P;PPV;Port Protection Seaplane Base;56.328800201416;-133.61000061035;0;NA;US;US-AK;Port Protection
1KC;KKK;Kalakaket Creek AS Airport;64.4166256967;-156.820392609;1598;NA;US;US-AK;Kalakaket Creek
1O6;MHS;Dunsmuir Muni-Mott Airport;41.263199;-122.272003;3258;NA;US;US-CA;Dunsmuir
1XA2;NIR;Chase Field Industrial Airport;28.362444;-97.661917;190;NA;US;US-TX;Beeville
1Z1;GCT;Grand Canyon Bar Ten Airstrip;36.258614;-113.231159;4100;NA;US;US-AZ;Littlefield
1Z9;ELW;Ellamar Seaplane Base;60.893818;-146.704038;0;NA;US;US-AK;Ellamar
2AK;LVD;Lime Village Airport;61.3591003418;-155.440002441;552;NA;US;US-AK;Lime Village
2AK6;HGZ;Hog River Airport;66.2161026;-155.6690063;534;NA;US;US-AK;Hogatza
2IG4;OTN;Ed-Air Airport;38.851782;-87.49987;426;NA;US;US-IN;Oaktown
2K5;TLF;Telida Airport;63.393901824951;-153.26899719238;650;NA;US;US-AK;Telida
2TE0;BZT;Eagle Air Park;28.982200622559;-95.579696655273;15;NA;US;US-TX;Brazoria
2Z1;HBH;Entrance Island Seaplane Base;57.412201;-133.43848;0;NA;US;US-AK;Entrance Island
2Z6;FAK;False Island Seaplane Base;57.5321998596;-135.212997437;;NA;US;US-AK;False Island
38WA;BYW;Blakely Island Airport;48.578998565700005;-122.825996399;66;NA;US;US-WA;Blakely Island
3AK5;DRF;Drift River Airport;60.588901519800004;-152.162002563;30;NA;US;US-AK;Kenai
3IS8;BDF;Rinkenberger Restricted Landing Area;41.230899810800004;-89.61569976810001;808;NA;US;US-IL;Bradford
3VS;VRS;Roy Otten Memorial Airfield;38.427799224854;-92.875198364258;1030;NA;US;US-MO;Versailles
3Z8;GDH;Golden Horn Lodge Seaplane Base;59.7470016479;-158.875;91;NA;US;US-AK;Golden Horn Lodge
4A2;ATT;Atmautluak Airport;60.866699;-162.272996;17;NA;US;US-AK;Atmautluak
4AK;LIV;Livengood Camp Airport;65.467;-148.6534;425;NA;US;US-AK;Livengood
4K0;PDB;Pedro Bay Airport;59.7896003723;-154.12399292;45;NA;US;US-AK;Pedro Bay
4K5;KOZ;Ouzinkie Airport;57.925362;-152.496715;55;NA;US;US-AK;Ouzinkie
4KA;TNK;Tununak Airport;60.575500488281;-165.27200317383;14;NA;US;US-AK;Tununak
4Z7;WHD;Hyder Seaplane Base;55.903324;-130.009975;;NA;US;US-AK;Hyder
51Z;MNT;Minto Al Wright Airport;65.1437;-149.369995;460;NA;US;US-AK;Minto
57A;TKI;Tokeen Seaplane Base;55.9370994568;-133.32699585;;NA;US;US-AK;Tokeen
5A8;WKK;Aleknagik / New Airport;59.2826004028;-158.617996216;66;NA;US;US-AK;Aleknagik
5KE;WFB;Ketchikan Harbor Seaplane Base;55.349899;-131.677002;;NA;US;US-AK;Ketchikan
5NK;NNK;Naknek Airport;58.735633;-157.02216;70;NA;US;US-AK;Naknek
5Z9;BKF;Lake Brooks Seaplane Base;58.554798126221;-155.77699279785;36;NA;US;US-AK;Katmai National Park
65LA;BCS;Southern Seaplane Airport;29.866078;-90.021608;;NA;US;US-LA;Belle Chasse
6CA3;SPQ;Catalina Air-Sea Terminal Heliport;33.7491989136;-118.275001526;5;NA;US;US-CA;San Pedro
6N5;TSS;East 34th Street Heliport;40.74259948730469;-73.97209930419922;10;NA;US;US-NY;New York
6N7;QNY;New York Skyports Inc Seaplane Base;40.735061;-73.972814;;NA;US;US-NY;New York
6OK6;BWL;Earl Henry Airport;36.7958984375;-97.3170013428;1054;NA;US;US-OK;Blackwell
78K;WYB;Yes Bay Lodge Seaplane Base;55.9163017273;-131.800994873;;NA;US;US-AK;Yes Bay
78WA;CWS;Center Island Airport;48.4901008606;-122.832000732;115;NA;US;US-WA;Center Island
7KA;TEK;Tatitlek Airport;60.871449;-146.690297;62;NA;US;US-AK;Tatitlek
7NC2;DUF;Pine Island Airport;36.2535018921;-75.7884979248;16;NA;US;US-NC;Corolla
7WA5;SSW;Stuart Island Airpark;48.673379;-123.175439;10;NA;US;US-WA;Friday Harbor
82CL;FOB;Fort Bragg Airport;39.4743003845;-123.79599762;71;NA;US;US-CA;Fort Bragg
83Q;PUL;Port of Poulsbo Marina Moorage Seaplane Base;47.734001159668;-122.64700317383;0;NA;US;US-WA;Poulsbo
84CL;CCD;Century City Heliport;34.060798645;-118.417999268;473;NA;US;US-CA;Los Angeles
84K;WMK;Meyers Chuck Seaplane Base;55.7396011353;-132.255004883;0;NA;US;US-AK;Meyers Chuck
89NY;AXB;Maxson Airfield;44.312002;-75.90034;340;NA;US;US-NY;Alexandria Bay
8XS8;REE;Reese Airpark;33.590301513672;-102.03700256348;3338;NA;US;US-TX;Lubbock
90WA;WDN;Waldron Airstrip;48.7118;-123.017998;140;NA;US;US-WA;Eastsound
96Z;WWP;Whale Pass Seaplane Float Harbor Facility;56.116299;-133.121994;0;NA;US;US-AK;Whale Pass
9A3;CHU;Chuathbaluk Airport;61.579102;-159.216003;244;NA;US;US-AK;Chuathbaluk
9A8;UGS;Ugashik Airport;57.523476;-157.396344;25;NA;US;US-AK;Ugashik
9N2;PSQ;Philadelphia Seaplane Base;39.859001159668;-75.299598693848;0;NA;US;US-PA;Essington
9Z8;KLL;Levelock Airport;59.12606;-156.860906;39;NA;US;US-AK;Levelock
A23;SGW;Saginaw Seaplane Base;56.8862991333;-134.158004761;0;NA;US;US-AK;Saginaw Bay
A61;WTL;Tuntutuliak Airport;60.3353004456;-162.667007446;16;NA;US;US-AK;Tuntutuliak
A63;TWA;Twin Hills Airport;59.07559967041;-160.27299499512;82;NA;US;US-AK;Twin Hills
A79;KCQ;Chignik Lake Airport;56.2550010681;-158.774993896;50;NA;US;US-AK;Chignik Lake
AAD;AAD;Adado Airport;6.095802;46.6375;1001;AF;SO;SO-GA;Adado
ABP;ABP;Atkamba Airport;-6.06462;141.095173;150;OC;PG;PG-WPD;Atkamba Mission
ACM;ACM;Arica Airport;-2.144851;-71.758389;316;NA;CO;CO-AMA;Arica
AD-ALV;ALV;Andorra la Vella (Our Lady of Meritxell Hospital) Heliport;42.511228;1.533651;3450;EU;AD;AD-08;Escaldes-Engordany
ADC;ADC;Andakombe Airport;-7.13722222222;145.744722222;3600;OC;PG;PG-EHG;Andekombe
ADV;ADV;El Daein Airport;11.4023;26.1186;1560;AF;SD;SD-DE;El Daein
AE-0006;DJH;Jebel Ali Seaplane Base;24.988967;55.023796;0;AS;AE;AE-DU;Jebel Ali
AEE;AEE;Adareil Airport;10.053611;32.959444;1301;AF;SS;SS-23;Adar
AEK;AEK;Aseki Airport;-7.35080485552;146.19386673;4106;OC;PG;PG-MPL;Aseki
AEQ;AEQ;Ar Horqin Airport;43.87042;120.15958;1335;AS;CN;CN-15;Chifeng
AF-0005;KHT;Khost International Airport;33.284605;69.80734;4204;AS;AF;AF-KHO;Khost
AF10;URZ;Orūzgān Airport;32.9029998779;66.630897522;6725;AS;AF;AF-ORU;Orūzgān
AF11;OLR;Salerno Airport;33.3638;69.9561;3780;AS;AF;AF-KHO;Khost
AFK;AFK;Kondavattavana Tank Seaplane Base;7.284;81.644;95;AS;LK;LK-5;Ampara
AFR;AFR;Afore Airstrip;-9.142222222220001;148.390833333;2500;OC;PG;PG-NPP;
AGAF;AFT;Afutara Aerodrome;-9.19138888889;160.948611111;23;OC;SB;SB-ML;Bila
AGAR;RNA;Ulawa Airport;-9.86054358262;161.979546547;40;OC;SB;SB-MK;Arona
AGAT;ATD;Uru Harbour Airport;-8.87333;161.011002;;OC;SB;SB-ML;Atoifi
AGBA;VEV;Barakoma Airport;-7.912779808044434;156.70599365234375;;OC;SB;SB-WE;Barakoma
AGEV;GEF;Geva Airport;-7.575829982757568;156.5970001220703;;OC;SB;SB-WE;Liangia
AGG;AGG;Angoram Airport;-4.05583333333;144.073888889;75;OC;PG;PG-ESW;Angoram
AGGA;AKS;Gwaunaru'u Airport;-8.70257;160.682007;5;OC;SB;SB-ML;Auki
AGGB;BNY;Bellona/Anua Airport;-11.302222222200001;159.798333333;60;OC;SB;SB-RB;Anua
AGGC;CHY;Choiseul Bay Airport;-6.711944;156.396111;;OC;SB;SB-CH;
AGGE;BAS;Ballalae Airport;-6.990745;155.886656;5;OC;SB;SB-WE;Ballalae
AGGF;FRE;Fera/Maringe Airport;-8.1075;159.576996;;OC;SB;SB-IS;Fera Island
AGGH;HIR;Honiara International Airport;-9.428;160.054993;28;OC;SB;SB-GU;Honiara
AGGI;MBU;Babanakira Airport;-9.7475004196167;159.83900451660156;;OC;SB;SB-GU;Mbambanakira
AGGJ;AVU;Avu Avu Airport;-9.86833333333;160.410555556;25;OC;SB;SB-GU;
AGGK;IRA;Ngorangora Airport;-10.449700355500001;161.897994995;54;OC;SB;SB-MK;Kirakira
AGGL;SCZ;Santa Cruz/Graciosa Bay/Luova Airport;-10.72029972076416;165.7949981689453;18;OC;SB;SB-TE;Santa Cruz/Graciosa Bay/Luova
AGGM;MUA;Munda Airport;-8.32797;157.263;10;OC;SB;SB-WE;Munda
AGGN;GZO;Nusatupe Airport;-8.09778022766;156.863998413;13;OC;SB;SB-WE;Gizo
AGGO;MNY;Mono Airport;-7.416940212249756;155.56500244140625;;OC;SB;SB-WE;Stirling Island
AGGP;PRS;Parasi Airport;-9.641670227050781;161.4250030517578;;OC;SB;SB-ML;Parasi
AGGR;RNL;Rennell/Tingoa Airport;-11.533900260925293;160.06300354003906;;OC;SB;SB-RB;Rennell Island
AGGS;EGM;Sege Airport;-8.578889846801758;157.87600708007812;;OC;SB;SB-WE;Sege
AGGT;NNB;Santa Ana Airport;-10.847994;162.454108;3;OC;SB;SB-MK;Santa Ana Island
AGGU;RUS;Marau Airport;-9.861669540409999;160.824996948;;OC;SB;SB-GU;Marau
AGGV;VAO;Suavanao Airport;-7.585559844970703;158.7310028076172;;OC;SB;SB-IS;Suavanao
AGGY;XYA;Yandina Airport;-9.092816;159.21841;60;OC;SB;SB-CE;Yandina
AGK;AGK;Kagua Airport;-6.396388888890001;143.853611111;5350;OC;PG;PG-SHM;Kagua
AGKG;KGE;Kaghau Airport;-7.3305;157.585;30;OC;SB;SB-CH;Kagau Island
AGKU;KUE;Kukudu Airport;-8.0262;156.94783;32;OC;SB;SB-WE;Kolombangara Island
AGKW;KWS;Kwailabesi Airport;-8.360508;160.775127;52;OC;SB;SB-ML;Kwailabesi
AGL;AGL;Wanigela Airport;-9.3375;149.155555556;53;OC;PG;PG-NPP;
AGNA;NAZ;Nana Airport;-10.6758;162.2049;60;OC;SB;SB-MK;Star Harbor
AGOK;GTA;Gatokae Aerodrome;-8.738358;158.202836;70;OC;SB;SB-WE;Gatokae
AGRC;RIN;Ringi Cove Airport;-8.12639045715332;157.14300537109375;;OC;SB;SB-WE;Ringi Cove
AGRM;RBV;Ramata Airport;-8.168060302734375;157.64300537109375;;OC;SB;SB-WE;Ramata
AGTI;TLG;Tulaghi Heliport;-9.108;160.149166667;3;OC;SB;SB-CE;Tulaghi Island
AGY;AGY;Argyle Downs Airport;-16.508604;128.922485;407;OC;AU;AU-WA;Argyle Downs
AHJ;AHJ;Hongyuan Airport;32.53154;102.35224;11600;AS;CN;CN-51;Aba
AHY;AHY;Ambatolhy Airport;-20.015833333299998;45.535;340;AF;MG;MG-U;Ambatolahy
AIE;AIE;Aiome Airport;-5.145699978;144.7307003;350;OC;PG;PG-MPM;Aiome
AIH;AIH;Aiambak Airport;-7.342777777779999;141.2675;90;OC;PG;PG-WPD;Aiambak
AIP;AIC;Ailinglaplap Airok Airport;7.279422;168.8257;16;OC;MH;MH-ALL;Bigatyelang Island
AK13;CEX;Chena Hot Springs Airport;65.0518035889;-146.04699707;1195;NA;US;US-AK;Chena Hot Springs
AK26;SOL;Solomon State Field;64.5605;-164.4457;25;NA;US;US-AK;Solomon
AK33;HED;Herendeen Bay Airport;55.801399231;-160.899002075;20;NA;US;US-AK;Herendeen Bay
AK49;TWE;Taylor Airport;65.6792984009;-164.798995972;440;NA;US;US-AK;Taylor
AK56;KTH;Tikchik Lodge Seaplane Base;59.9631996155;-158.477005005;304;NA;US;US-AK;Tikchik
AK62;NKI;Naukati Bay Seaplane Base;55.849602;-133.227994;0;NA;US;US-AK;Tuxekan Island
AK71;LNI;Point Lonely Short Range Radar Site Airfield;70.911118;-153.237766;17;NA;US;US-AK;Point Lonely
AK75;CDL;Candle 2 Airport;65.907699585;-161.925994873;15;NA;US;US-AK;Candle
AK81;AOS;Amook Bay Seaplane Base;57.4715003967;-153.815002441;;NA;US;US-AK;Amook Bay
AK97;BSW;Boswell Bay Airport;60.4230995178;-146.145996094;230;NA;US;US-AK;Boswell Bay
AKM;AKM;Zakuoma Airport;10.8902777778;19.8172222222;1370;AF;TD;TD-SA;ZaKouma
AL73;TGE;Sharpe Field;32.4919013977;-85.7755966187;253;NA;US;US-AL;Tuskegee
ALZ;ALZ;Alitak Seaplane Base;56.8995018005;-154.248001099;;NA;US;US-AK;Lazy Bay
AMC;PPE;Mar de Cortés International Airport;31.351987;-113.305177;71;NA;MX;MX-SON;Puerto Peñasco
AME;AME;Alto Molocue Airport;-15.6102777778;37.6813888889;1950;AF;MZ;MZ-Q;Alto Molocue
AMF;AMF;Ama Airport;-4.10111111111;141.67;145;OC;PG;PG-ESW;
AMU;AMU;Amanab Airport;-3.586;141.214333333;1307;OC;PG;PG-SAN;Amanab
AMY;AMY;Ambatomainty Airport;-17.6866666667;45.623888888900005;1025;AF;MG;MG-M;
ANYN;INU;Nauru International Airport;-0.547458;166.919006;22;OC;NR;NR-14;Yaren District
ANZ;ANZ;Angus Downs Airport;-25.0325;132.2748;1724;OC;AU;AU-NT;Angus Downs Station
AO-0001;CTV;Catoca Airport;-9.430985;20.311478;3498;AF;AO;AO-LSU;Saurimo
AO-0005;ANL;Andulo Airport;-11.4723;16.710899;;AF;AO;AO-BIE;Andulo
AO-CNZ;CNZ;Cangamba Airport;-13.7106;19.861099;3894;AF;AO;AO-MOX;Cangamba
AO-DRC;DRC;Dirico Airport;-17.981924057006836;20.7680606842041;3504;AF;AO;AO-CCU;Dirico
AO-GGC;GGC;Lumbala Airport;-12.6398773193;22.5868206024;3510;AF;AO;AO-MOX;Lumbala
AO-KNP;KNP;Capanda Airport;-9.76937007904;15.4553194046;3366;AF;AO;AO-MAL;Capanda
AO-NDF;NDF;N'dalatando Airport;-9.280378;14.982432;2684;AF;AO;AO-CNO;N'dalatando
AOB;AOB;Annanberg Airport;-4.90416666667;144.635833333;130;OC;PG;PG-MPM;
AOD;AOD;Abou-Deïa Airport;11.4773;19.2874;1592;AF;TD;TD-SA;Abou-Deïa
APP;APP;Asapa Airport;-8.97916666667;148.103611111;1930;OC;PG;PG-NPP;
APR;APR;April River Airport;-4.67666666667;142.540138889;220;OC;PG;PG-ESW;April River
AQ-0002;QET;Troll Airfield;-71.95714;2.45257;4167;AN;AQ;AQ-U-A;Troll Station
AQY;AQY;Girdwood Airport;60.968774;-149.119792;150;NA;US;US-AK;Girdwood
AR-0005;QRF;Bragado Airport;-35.145811;-60.480294;196;SA;AR;AR-B;Bragado
AR-0007;CVI;Caleta Olivia Airport;-46.37428;-67.59409;37;SA;AR;AR-Z;Caleta Olivia
AR-0009;CNT;Charata Airport;-27.2164;-61.2103;318;SA;AR;AR-H;Charata
AR-0010;VGS;General Villegas Airport;-34.995728;-62.999725;383;SA;AR;AR-B;General Villegas
AR-0011;LMD;Los Menucos Airport;-40.817699;-68.074699;2571;SA;AR;AR-R;Los Menucos
AR-0017;VCF;Valcheta Airport;-40.7000007629;-66.1500015259;629;SA;AR;AR-R;Valcheta
AR-0346;NCJ;Sunchales Aeroclub Airport;-30.9575;-61.5283;299;SA;AR;AR-S;Sunchales
AR-0390;CPG;Carmen de Patagones Airport;-40.7781;-62.9803;131;SA;AR;AR-B;Carmen de Patagones
AR-0462;PRQ;Termal Airport;-26.753611;-60.492222;308;SA;AR;AR-H;Presidencia Roque Sáenz Peña
AR-0494;OLN;Colonia Sarmiento Airport;-45.582371;-68.999841;877;SA;AR;AR-U;Sarmiento
ARP;ARP;Aragip Airport;-9.88333333333;149.483333333;1750;OC;PG;PG-MBA;
ASZ;ASZ;Asirim Airport;-6.009722222220001;150.368611111;1050;OC;PG;PG-WBK;
ATN;ATN;Namatanai Airport;-3.6695;152.438;150;OC;PG;PG-NIK;Namatanai
ATP;ATP;Aitape Airport;-3.1436111111100002;142.346805556;10;OC;PG;PG-SAN;Aitape
AU-0081;LYT;Lady Elliot Island Airstrip;-24.1129;152.7156;20;OC;AU;AU-QLD;Lady Elliot Island
AU-0456;GYZ;Gruyere Airport;-28.034548;123.81506;1542;OC;AU;AU-WA;Gruyere Mine village
AU-0457;KQR;Karara Airport;-29.217223;116.687154;1011;OC;AU;AU-WA;Karara
AU-AGW;AGW;Agnew Airport;-12.1456;142.149369;160;OC;AU;AU-QLD;Agnew
AU-AYD;AYD;Alroy Downs Airport;-19.2908;136.078995;711;OC;AU;AU-NT;Alroy Downs
AU-BYX;BYX;Baniyala Airport;-13.1981;136.227005;20;OC;AU;AU-NT;Baniyala
AU-COB;COB;Coolibah Airport;-15.548299789428711;130.96200561523438;;OC;AU;AU-NT;Coolibah
AU-CRJ;CRJ;Coorabie Airport;-31.894399642944336;132.29600524902344;;OC;AU;AU-SA;Coorabie
AU-CRY;CRY;Carlton Hill Airport;-15.501899719238281;128.53399658203125;;OC;AU;AU-WA;Carlton Hill
AU-CSD;CSD;Cresswell Downs Airport;-17.947999954223633;135.91600036621094;;OC;AU;AU-NT;Cresswell Downs
AU-DYM;DYM;Diamantina Lakes Airport;-23.761699676513672;141.14500427246094;;OC;AU;AU-QLD;Diamantina Lakes
AU-HIS;HIS;Hayman Island Resort Seaplane Base;-20.059999465942383;148.88099670410156;;OC;AU;AU-QLD;Hayman Island
AU-HLV;HLV;Helenvale Airport;-15.685799598693848;145.21499633789062;;OC;AU;AU-QLD;Helenvale
AU-KBD;KBD;Kimberley Downs Airport;-17.39780044555664;124.3550033569336;;OC;AU;AU-WA;Kimberley Downs
AU-KGR;KGR;Kulgera Airport;-25.84280014038086;133.29200744628906;;OC;AU;AU-NT;Kulgera
AU-MYO;MYO;Camballin Airport;-18.12470054626465;124.27200317382812;;OC;AU;AU-WA;Myroodah
AU-OKB;OKB;Orchid Beach Airport;-24.959400177002;153.31500244141;71;OC;AU;AU-QLD;Orchid Beach
AU-PEP;PEP;Peppimenarti Airport;-14.144200325;130.091003418;83;OC;AU;AU-NT;Peppimenarti
AU-RDA;RDA;Rockhampton Downs Airport;-18.95330047607422;135.2010040283203;;OC;AU;AU-NT;Rockhampton Downs
AU-SSK;SSK;Sturt Creek Airport;-19.166400909423828;128.1739959716797;;OC;AU;AU-WA;Sturt Creek
AU-SWB;SWB;Shaw River Airport;-21.510299682617188;119.36199951171875;;OC;AU;AU-WA;Shaw River
AU-TPR;TPR;Tom Price Airport;-22.746000289900003;117.869003296;2300;OC;AU;AU-WA;Tom Price
AU-TWP;TWP;Torwood Airport;-17.363300323486328;143.75;;OC;AU;AU-QLD;Torwood
AU-ZVG;ZVG;Springvale Airport;-17.78689956665039;127.66999816894531;;OC;AU;AU-WA;Springvale
AUI;AUI;Aua Island Airport;-1.46055555556;143.064722222;4;OC;PG;PG-MRL;Aua Island
AUJ;AUJ;Ambunti Airport;-4.21566666667;142.823166667;50;OC;PG;PG-ESW;Ambunti
AUP;AUP;Agaun Airport;-9.930833;149.385667;3200;OC;PG;PG-MBA;
AUV;AUV;Aumo Airport;-5.731111111110001;148.445277778;450;OC;PG;PG-WBK;Aumo
AWE;AWE;Alowe Airport;-0.545;9.444;600;AF;GA;GA-3;Wonga Wongué Presidential Reserve
AXF;AXF;Alxa Left Banner Bayanhot Airport;38.74831;105.58858;4560;AS;CN;CN-15;Bayanhot
AXO;AXO;Pantar Airport;-8.24638;124.21971;18;AS;ID;ID-NT;Alor Island
AYAQ;KPM;Kompiam Airport;-5.38166666667;143.924722222;5100;OC;PG;PG-EPW;
AYBK;BUA;Buka Airport;-5.4223198890686035;154.67300415039062;11;OC;PG;PG-NSB;Buka Island
AYBR;BRP;Biaru Airport;-7.6693;146.7594;4900;OC;PG;PG-MPL;Biaru
AYCH;CMU;Chimbu Airport;-6.024290084838867;144.9709930419922;4974;OC;PG;PG-CPK;Kundiawa
AYDK;MDM;Munduku Airport;-4.6204;143.4516;100;OC;PG;PG-ESW;Munduku
AYDL;KPF;Kondobol Airport;-8.5336;142.5049;132;OC;PG;PG-WPD;Kondobol
AYDN;DNU;Dinangat Airport;-6.1546;146.6772;5309;OC;PG;PG-MPL;Dinangat
AYDO;DOI;Doini Airport;-10.7009;150.7218;31;OC;PG;PG-MBA;Castori Islets
AYDU;DAU;Daru Airport;-9.08675956726;143.207992554;20;OC;PG;PG-WPD;Daru
AYEB;EMS;Embessa Airport;-9.447;148.7628;131;OC;PG;PG-NPP;Embessa
AYED;XYR;Edwaki Airport;-3.883986;141.792234;190;OC;PG;PG-SAN;Yellow River Mission
AYEL;EPT;Eliptamin Airport;-5.0412;141.6779;4825;OC;PG;PG-SAN;Eliptamin
AYEN;EGA;Engati Airstrip;-6.9179;146.1053;3715;OC;PG;PG-MPL;Engati
AYEO;EMO;Emo River Airstrip;-9.1234;148.0415;2240;OC;PG;PG-NPP;Emo Mission
AYER;ERU;Erume Airport;-8.2538;146.9747;6690;OC;PG;PG-CPM;Erume
AYES;MFZ;Meselia Airport;-6.1364;149.1183;180;OC;PG;PG-WBK;Demgulu
AYFE;FRQ;Feramin Airport;-5.208;141.6988;4655;OC;PG;PG-SAN;Feramin
AYFR;FAQ;Frieda River Airport;-4.610468;141.960138;217;OC;PG;PG-ESW;Frieda River
AYFU;FUM;Fuma Airport;-6.3933;142.4408;466;OC;PG;PG-WPD;Fuma
AYGA;GKA;Goroka Airport;-6.081689834590001;145.391998291;5282;OC;PG;PG-EHG;Goronka
AYGF;GUG;Guari Airport;-8.1286;146.8722;6450;OC;PG;PG-CPM;Guari
AYGG;GRL;Garasa Airport;-7.980713;147.213461;2539;OC;PG;PG-MPL;Au
AYGN;GUR;Gurney Airport;-10.3114995956;150.333999634;88;OC;PG;PG-MBA;Gurney
AYGP;GAP;Gusap Airport;-6.053196;145.959047;1504;OC;PG;PG-MPL;Gusap
AYGR;PNP;Girua Airport;-8.80453968048;148.309005737;311;OC;PG;PG-NPP;Popondetta
AYGS;GBC;Gasuke Airport;-6.1028;141.7393;157;OC;PG;PG-WPD;Gasuke
AYHB;HBD;Habi Airport;-6.32;142.4893;993;OC;PG;PG-WPD;Habi
AYHE;HNI;Heiweni Airport;-7.4223;146.4276;3480;OC;PG;PG-MPL;Heiweni
AYHH;HNN;Honinabi Airport;-6.2457;142.1771;452;OC;PG;PG-WPD;Honinabi
AYHK;HKN;Hoskins Airport;-5.463846;150.407327;66;OC;PG;PG-WBK;Kimbe
AYHO;HIT;Haivaro Airport;-6.9406;143.059;180;OC;PG;PG-GPK;Haivaro
AYII;IMN;Imane Airport;-6.7524;146.1072;3860;OC;PG;PG-MPL;Imane
AYIM;KGM;Kungim Airport;-5.671;141.03;349;OC;PG;PG-WPD;Kungim
AYIO;IMD;Imonda Airport;-3.328;141.1573;990;OC;PG;PG-SAN;Imonda
AYIQ;KIE;Aropa Airport;-6.305417;155.728139;20;OC;PG;PG-NSB;Kieta
AYIU;IAL;Ialibu Airport;-6.2782;143.9944;6736;OC;PG;PG-SHM;Ialibu
AYIX;WIU;Witu Airport;-4.689522;149.440112;25;OC;PG;PG-WBK;Garove Island
AYJO;KGH;Yongai Airport;-8.5289;147.4603;6500;OC;PG;PG-CPM;Yongai
AYKA;LSA;Losuia Airport;-8.505820274353027;151.08099365234375;27;OC;PG;PG-MBA;Losuia
AYKG;KPA;Kopiago Airport;-5.3883;142.4977;4445;OC;PG;PG-HE;Kopiago
AYKI;UNG;Kiunga Airport;-6.1257100105285645;141.28199768066406;88;OC;PG;PG-WPD;Kiunga
AYKJ;KNE;Kanainj Airport;-5.2903;144.7072;4064;OC;PG;PG-MPM;Kanainj
AYKK;KRI;Kikori Airport;-7.424379825592041;144.2500762939453;50;OC;PG;PG-GPK;Kikori
AYKM;KMA;Kerema Airport;-7.96361017227;145.770996094;10;OC;PG;PG-GPK;Kerema
AYKR;KRX;Kar Kar Airport;-4.557;145.9404;130;OC;PG;PG-MPM;Kar Kar Island
AYKU;KUQ;Kuri Airport;-7.135083;143.276111;35;OC;PG;PG-GPK;Kuri
AYKV;KVG;Kavieng Airport;-2.57940006256;150.807998657;7;OC;PG;PG-NIK;Kavieng
AYKY;LNV;Londolovit Airport;-3.04361009598;152.628997803;167;OC;PG;PG-NIK;Londolovit
AYLB;LAB;Lab Lab Airport;-5.7204;148.0566;160;OC;PG;PG-MPL;Lab Lab Mission
AYLO;LWI;Lowai Airport;-6.3344;146.6458;2900;OC;PG;PG-MPL;Lowai
AYLP;LPN;Leron Plains Airport;-6.3917;146.3434;680;OC;PG;PG-MPL;Leron Plains
AYLS;LNG;Lese Airport;-8.2799;146.2765;40;OC;PG;PG-GPK;Lese
AYLX;LSJ;Long Island Airport;-5.3604;147.0177;116;OC;PG;PG-MPM;Long Island
AYM;AYM;Yas Island Seaplane Base;24.467;54.6103;0;AS;AE;AE-AZ;Abu Dhabi
AYMA;MRM;Manari Airport;-9.1908;147.6219;2630;OC;PG;PG-CPM;Manari
AYMB;OBM;Morobe Airport;-7.74;147.59;8;OC;PG;PG-MPL;Morobe
AYMD;MAG;Madang Airport;-5.20707988739;145.789001465;20;OC;PG;PG-MPM;Madang
AYMH;HGU;Mount Hagen Kagamuga Airport;-5.826789855957031;144.29600524902344;5388;OC;PG;PG-WHM;Mount Hagen
AYML;GUV;Mougulu Airport;-6.280859;142.420775;825;OC;PG;PG-WPD;Mougulu
AYMN;MDU;Mendi Airport;-6.14774;143.656998;5680;OC;PG;PG-SHM;Mendi
AYMO;MAS;Momote Airport;-2.06189;147.423996;12;OC;PG;PG-MRL;Manus Island
AYMR;MXH;Moro Airport;-6.36332988739;143.238006592;2740;OC;PG;PG-SHM;Moro
AYMS;MIS;Misima Island Airport;-10.689200401299999;152.837997437;26;OC;PG;PG-MBA;Misima Island
AYMW;MWG;Marawaka Airport;-6.9736;145.8849;6050;OC;PG;PG-EHG;Marawaka
AYNA;NKN;Nankina Airport;-5.837;146.4533;5800;OC;PG;PG-MPM;Gwarawon
AYNE;GBF;Negarbo(Negabo) Airport;-6.567778;144.703058;4500;OC;PG;PG-CPK;Negarbo
AYNG;MFO;Manguna Airport;-5.577778;151.792333;187;OC;PG;PG-EBR;Manguna
AYNM;KSB;Kasonombe Airport;-6.3819;146.9859;5800;OC;PG;PG-MPL;Kasonombe
AYNO;NMN;Nomane Airport;-6.32183;145.070667;6032;OC;PG;PG-CPK;Namane
AYNY;NBA;Nambaiyufa Airport;-6.2412;145.2424;5550;OC;PG;PG-CPK;Nambaiyufa
AYNZ;LAE;Nadzab Airport;-6.569803;146.725977;239;OC;PG;PG-MPL;Lae
AYOE;KGB;Konge Airport;-6.2239;147.2152;5900;OC;PG;PG-MPL;Konge
AYOJ;OKP;Oksapmin Airport;-5.2261;142.2259;5140;OC;PG;PG-SAN;Oksapmin
AYOK;HOC;Komako Airport;-7.3984;145.8827;3960;OC;PG;PG-GPK;Komako
AYOQ;KCJ;Komaio Airport;-7.2714;143.5952;28;OC;PG;PG-GPK;Komaio
AYOW;KDE;Koroba Airport;-5.6952;142.7441;5638;OC;PG;PG-HE;Koroba
AYOY;OPB;Open Bay Airport;-4.794727;151.696195;33;OC;PG;PG-EBR;Maitanakunai
AYPC;PGB;Pangoa Airport;-7.0226;141.5605;60;OC;PG;PG-WPD;Pangoa
AYPG;PGN;Pangia Airport;-6.386;144.1084;5340;OC;PG;PG-SHM;Pangia
AYPO;MPF;Mapoda Airport;-7.979;143.1694;45;OC;PG;PG-WPD;Mapoda
AYPQ;PMN;Pumani Airport;-9.7469;149.4766;427;OC;PG;PG-MBA;Pumani
AYPY;POM;Port Moresby Jacksons International Airport;-9.443380355834961;147.22000122070312;146;OC;PG;PG-NCD;Port Moresby
AYQO;SPH;Sopu Airport;-8.3038;147.1659;6580;OC;PG;PG-CPM;Sopu
AYQS;SXA;Sialum Airport;-6.0908;147.5955;170;OC;PG;PG-MPL;Sialum
AYRG;RMN;Rumginae Airport;-5.89722222222;141.271666667;160;OC;PG;PG-WPD;
AYRI;KMR;Karimui Airport;-6.4921;144.823;3640;OC;PG;PG-CPK;Karimui
AYRM;MWI;Maramuni Airport;-5.13;143.4829;5160;OC;PG;PG-EPW;Maramuni
AYRV;MRH;May River Airstrip;-4.3615;141.785;107;OC;PG;PG-ESW;May River
AYSA;SBE;Suabi Airport;-6.10444444444;142.278333333;465;OC;PG;PG-WPD;
AYSE;NIS;Simberi Airport;-2.66222222222;151.997777778;10;OC;PG;PG-NIK;Simberi Island
AYSG;SIL;Sila Airport;-9.07355555556;148.38925;2230;OC;PG;PG-NPP;Sila Mission
AYSH;SBV;Sabah Airport;-5.5765;155.0489;10;OC;PG;PG-NSB;Sabah
AYSJ;SIM;Simbai Airport;-5.278611111110001;144.544722222;5804;OC;PG;PG-MPM;Simbai
AYSO;SBC;Selbang Airport;-5.315;141.752;5130;OC;PG;PG-WPD;Selbang
AYSQ;SPV;Sepik Plains Airport;-3.8821;143.6734;230;OC;PG;PG-ESW;Sepik Plains
AYSV;SXW;Sauren Airport;-5.9701;148.8543;46;OC;PG;PG-WBK;Sauren
AYSX;MBV;Masa Airport;-6.345;147.591;5900;OC;PG;PG-MPL;Masa
AYTA;TIZ;Tari Airport;-5.84499979019;142.947998047;5500;OC;PG;PG-HE;Tari
AYTB;TBG;Tabubil Airport;-5.27861;141.225998;1570;OC;PG;PG-WPD;Tabubil
AYTI;TPI;Tapini Airport;-8.35666666667;146.989166667;3100;OC;PG;PG-CPM;Tapini
AYTK;RAB;Tokua Airport;-4.34046;152.380005;49;OC;PG;PG-EBR;Kokopo
AYTN;TKW;Tekin Airport;-5.24366666667;142.165194444;5785;OC;PG;PG-SAN;Tekin
AYTP;TEP;Tep Tep Airport;-5.9553;146.5595;7011;OC;PG;PG-MPM;Teptep
AYTS;TSW;Tsewi Airport;-7.0695;146.1272;4185;OC;PG;PG-MPL;Tsewi
AYTT;TRJ;Tarakbits Airport;-5.614;141.0421;281;OC;PG;PG-WPD;Tarakbits
AYTW;TWY;Tawa Airport;-7.4463;146.1067;5020;OC;PG;PG-MPL;Tawa
AYTZ;TKB;Tekadu Airport;-7.6808;146.5503;1310;OC;PG;PG-MPL;Tekadu
AYU;AYU;Aiyura Airport;-6.33805555556;145.904166667;5355;OC;PG;PG-EHG;Aiyura Valley
AYUC;UMC;Umba Airport;-7.0214;145.966;5950;OC;PG;PG-MPL;Umba
AYUE;URU;Uroubi Airport;-9.5162;148.5591;481;OC;PG;PG-NPP;Uroubi
AYUR;UPR;Upiara Airport;-8.5411;142.6503;52;OC;PG;PG-WPD;Upiara
AYUZ;UVO;Uvol Airport;-6.0178;150.9557;15;OC;PG;PG-EBR;Uvol
AYVL;TLW;Talasea Airport;-5.2726;150.0089;44;OC;PG;PG-WBK;Talasea
AYVM;TCJ;Torembi Airport;-4.0165;143.1329;90;OC;PG;PG-ESW;Torembi
AYVN;VAI;Vanimo Airport;-2.6926;141.3028;10;OC;PG;PG-SAN;Vanimo
AYVO;TON;Tonu Airport;-6.6552;155.4326;300;OC;PG;PG-NSB;Tonu
AYWB;WAO;Wabo Airport;-6.98944444444;145.075111111;132;OC;PG;PG-GPK;Wabo
AYWD;WBM;Wapenamanda Airport;-5.6433;143.895004;5889;OC;PG;PG-EPW;Wapenamanda
AYWF;WAJ;Wawoi Falls Airport;-6.9523;142.6557;370;OC;PG;PG-WPD;Wavoi Falls
AYWK;WWK;Wewak International Airport;-3.58383011818;143.669006348;19;OC;PG;PG-ESW;Wewak
AYWO;WOA;Wonenara Airport;-6.796861111110001;145.891944444;5028;OC;PG;PG-EHG;Wonenara
AYWQ;WKN;Wakunai Airport;-5.8603;155.2223;20;OC;PG;PG-NSB;Wakunai
AYWS;WSU;Wasu Airport;-5.96170944919;147.19822526;34;OC;PG;PG-MPL;Wasu
AYWT;WTP;Woitape Airport;-8.54583333333;147.2525;5200;OC;PG;PG-CPM;Fatima Mission
AYWU;WUG;Wau Airport;-7.345556;146.718611;3600;OC;PG;PG-MPL;Wau
AYXE;YVD;Yeva Airport;-7.548;146.188;4510;OC;PG;PG-MPL;Yeva
AYXI;SMJ;Sim Airport;-7.75;146.9273;5460;OC;PG;PG-MPL;Sim
AYXW;WEP;Weam Airport;-8.6184;141.1381;50;OC;PG;PG-WPD;Weam
AYY;AYY;Arugam Bay SPB;6.86;81.82388888890002;;AS;LK;LK-5;Pottuvil
AYYE;KYX;Yalumet Airport;-6.09;147.0117;2600;OC;PG;PG-MPL;Yalumet
AYYR;KSX;Yasuru Airport;-6.6015;146.1813;1520;OC;PG;PG-MPL;Yasuru
AYZM;WUM;Wasum Airport;-6.0491;149.337;175;OC;PG;PG-WBK;Wasum
AZ-0001;ZXT;Zabrat Airport;40.4955422161;49.9768066406;36;AS;AZ;AZ-BA;Baku
AZ-0011;FZL;Fuzuli International Airport;39.594578;47.196128;1247;AS;AZ;AZ-FUZ;Fuzuli
AZ15;HAE;Lava Falls Heliport;36.191600799599996;-113.092002869;1720;NA;US;US-AZ;Supai Village
AZB;AZB;Amazon Bay Airport;-10.2991666667;149.338333333;12;OC;PG;PG-CPM;
AZJ;AZJ;Zhenjiang Dalu Airport;32.23649;119.718683;16;AS;CN;CN-32;Zhenjiang
BAJ;BAJ;Bali Airport;-4.8833333333299995;149.133333333;90;OC;PG;PG-WBK;Unea Island
BCP;BCP;Bambu Airport;-5.863611111110001;146.4925;6790;OC;PG;PG-MPM;Bambu
BCW;BCW;Benguera Island Airport;-21.853300094604492;35.43830108642578;;AF;MZ;MZ-I;Benguera Island
BCZ;BCZ;Milyakburra Airport;-13.780833333299999;136.201666667;85;OC;AU;AU-NT;Bickerton Island
BDH;ILL;Willmar Municipal Airport John L Rice Field (2006);45.117552;-95.132259;1126;NA;US;US-MN;Willmar
BDZ;BDZ;Baindoung Airport;-6.34722222222;146.942222222;4400;OC;PG;PG-MPL;
BG-HKV;HKV;Malevo Airport;41.871799469;25.6047992706;600;EU;BG;BG-26;Haskovo
BG-JAM;JAM;Bezmer Air Base;42.4548988342;26.3521995544;509;EU;BG;BG-28;Yambol
BGAA;JEG;Aasiaat Airport;68.721802;-52.784698;74;NA;GL;GL-U-A;Aasiaat
BGAG;AOQ;Aappilattoq (Qaasuitsup) Heliport;72.88703;-55.596287;42;NA;GL;GL-U-A;Qaasuitsup
BGAM;AGM;Tasiilaq Heliport;65.612296;-37.618335;24;NA;GL;GL-U-A;Tasiilaq
BGAT;QGQ;Attu Heliport;67.9406628551;-53.6218696833;32;NA;GL;GL-U-A;Attu
BGBW;UAK;Narsarsuaq Airport;61.1605;-45.425999;112;NA;GL;GL-U-A;Narsarsuaq
BGCH;JCH;Qasigiannguit Heliport;68.822815547;-51.1734473705;70;NA;GL;GL-U-A;Qasigiannguit
BGCO;CNP;Neerlerit Inaat Airport;70.7431030273;-22.6504993439;45;NA;GL;GL-U-A;Neerlerit Inaat
BGET;QFG;Eqalugaarsuit Heliport;60.6197196536;-45.9140619636;9;NA;GL;GL-U-A;Eqalugaarsuit
BGGH;GOH;Godthaab / Nuuk Airport;64.190903;-51.678101;283;NA;GL;GL-U-A;Nuuk
BGGN;JGO;Qeqertarsuaq Heliport;69.251181993;-53.5148763657;9;NA;GL;GL-U-A;Qeqertarsuaq Airport
BGIG;QFI;Iginniarfik;68.1472255861;-53.1735277176;50;NA;GL;GL-U-A;Iginniarfik
BGIK;QRY;Ikerassaarsuk Heliport;68.14088100629999;-53.4414589405;165;NA;GL;GL-U-A;Ikerassaarsuk
BGIL;XIQ;Ilimanaq Heliport;69.0809150007;-51.1143153906;52;NA;GL;GL-U-A;Ilimanaq
BGIN;IUI;Innarsuit Heliport;73.199895;-56.010817;95;NA;GL;GL-U-A;Innarsuit
BGIS;IOQ;Isortoq Heliport;65.547792;-38.976552;92;NA;GL;GL-U-A;Isortoq
BGIT;QJI;Ikamiut Heliport;68.6342530984;-51.8322622776;49;NA;GL;GL-U-A;Ikamiut
BGJH;JJU;Qaqortoq Heliport;60.715684155299996;-46.0299186409;53;NA;GL;GL-U-A;Qaqortoq
BGJN;JAV;Ilulissat Airport;69.243202;-51.057098;95;NA;GL;GL-U-A;Ilulissat
BGKA;QPW;Kangaatsiaq Heliport;68.3126574861;-53.4602075815;17;NA;GL;GL-U-A;Kangaatsiaq
BGKK;KUS;Kulusuk Airport;65.573601;-37.1236;117;NA;GL;GL-U-A;Kulusuk
BGKM;KUZ;Kuummiut Heliport;65.863935;-36.997919;89;NA;GL;GL-U-A;Kuummiut
BGKQ;KHQ;Kullorsuaq Heliport;74.57805;-57.226828;148;NA;GL;GL-U-A;Kullorsuaq
BGKS;KGQ;Kangersuatsiaq Heliport;72.381092;-55.536586;112;NA;GL;GL-U-A;Kangersuatsiaq
BGKT;QJE;Kitsissuarsuit Heliport;68.85792599759999;-53.123295307199996;18;NA;GL;GL-U-A;Kitsissuarsuit
BGMQ;JSU;Maniitsoq Airport;65.412498;-52.9394;91;NA;GL;GL-U-A;Maniitsoq
BGNN;JNN;Nanortalik Heliport;60.141883975899994;-45.232976675;17;NA;GL;GL-U-A;Nanortalik
BGNS;JNS;Narsaq Heliport;60.9172827256;-46.059923172;83;NA;GL;GL-U-A;Narsaq
BGNT;NIQ;Niaqornat Heliport;70.789385;-53.662945;10;NA;GL;GL-U-A;Niaqornat
BGNU;NSQ;Nuussuaq Heliport;74.109853;-57.065037;184;NA;GL;GL-U-A;Nuussuaq
BGPT;JFR;Paamiut Airport;62.0147361755;-49.6709365845;120;NA;GL;GL-U-A;Paamiut
BGQE;PQT;Qeqertaq Heliport;69.995861;-51.300917;69;NA;GL;GL-U-A;Qeqertaq
BGQQ;NAQ;Qaanaaq Airport;77.4886016846;-69.3887023926;51;NA;GL;GL-U-A;Qaanaaq
BGSC;OBY;Ittoqqortoormiit Heliport;70.4882288244;-21.971679925900002;238;NA;GL;GL-U-A;Ittoqqortoormiit
BGSF;SFJ;Kangerlussuaq Airport;67.012222;-50.711603;165;NA;GL;GL-U-A;Kangerlussuaq
BGSI;SRK;Siorapaluk Heliport;77.786517;-70.638657;102;NA;GL;GL-U-A;Siorapaluk
BGSO;QOQ;Saarloq Heliport;60.537778;-46.024722;;NA;GL;GL-U-A;
BGSS;JHS;Sisimiut Airport;66.951302;-53.729301;33;NA;GL;GL-U-A;Sisimiut
BGSV;SVR;Savissivik Heliport;76.018613;-65.117683;24;NA;GL;GL-U-A;Savissivik
BGTA;TQA;Tasiusaq (Qaasuitsup) Heliport;73.373055;-56.06028;181;NA;GL;GL-U-A;Upernavik
BGTL;THU;Thule Air Base;76.5311965942;-68.7032012939;251;NA;GL;GL-U-A;Thule
BGTN;TQI;Tiniteqilaaq Heliport;65.892027;-37.783409;15;NA;GL;GL-U-A;Tiniteqilaaq
BGUK;JUV;Upernavik Airport;72.7901992798;-56.1305999756;414;NA;GL;GL-U-A;Upernavik
BGUM;UMD;Uummannaq Heliport;70.6804279261;-52.111630439799995;50;NA;GL;GL-U-A;Uummannaq
BGUQ;JQA;Qaarsut Airport;70.7341995239;-52.6962013245;289;NA;GL;GL-U-A;Uummannaq
BGUT;JUK;Ukkusissat Heliport;71.049438;-51.890016;223;NA;GL;GL-U-A;Ukkusissat
BHL;BHL;Bahía de los Ángeles Airport;28.9786;-113.560997;34;NA;MX;MX-BCN;Ensenada
BHT;BHT;Brighton Downs Airport;-23.3638888889;141.562777778;390;OC;AU;AU-QLD;
BIAR;AEY;Akureyri Airport;65.66000366210938;-18.07270050048828;6;EU;IS;IS-6;Akureyri
BIBD;BIU;Bildudalur Airport;65.64129638671875;-23.546199798583984;18;EU;IS;IS-4;Bildudalur
BIBF;BGJ;Borgarfjörður eystri Airport;65.51640319824219;-13.805000305175781;80;EU;IS;IS-7;Borgarfjörður eystri
BIBK;BJD;Bakkafjörður Airport;66.02189636230469;-14.824399948120117;14;EU;IS;IS-6;Bakkafjörður
BIBL;BLO;Hjaltabakki Airport;65.6449966430664;-20.287500381469727;131;EU;IS;IS-5;Blönduós
BIBR;BQD;Búðardalur Airport;65.07530212402344;-21.80030059814453;131;EU;IS;IS-3;Búðardalur
BIBV;BXV;Breiðdalsvík Airport;64.790037;-14.043927;8;EU;IS;IS-7;Breiðdalsvík
BIDV;DJU;Djúpivogur Airport;64.642372;-14.277297;9;EU;IS;IS-7;Djúpivogur
BIEG;EGS;Egilsstaðir Airport;65.2833023071289;-14.401399612426758;76;EU;IS;IS-7;Egilsstaðir
BIFF;FAS;Fáskrúðsfjörður Airport;64.931456;-14.047957;15;EU;IS;IS-7;Fáskrúðsfjörður
BIFM;FAG;Fagurhólsmýri Airport;63.874698638916016;-16.64109992980957;56;EU;IS;IS-7;Fagurhólsmýri
BIGF;GUU;Grundarfjörður Airport;64.99140167236328;-23.224700927734375;17;EU;IS;IS-3;Grundarfjörður
BIGJ;GJR;Gjögur Airport;65.99530029296875;-21.326900482177734;83;EU;IS;IS-4;Gjögur
BIGR;GRY;Grímsey Airport;66.5458;-18.0173;66;EU;IS;IS-6;Grímsey
BIHK;HVK;Hólmavík Airport;65.70469665527344;-21.696399688720703;90;EU;IS;IS-4;Hólmavík
BIHN;HFN;Hornafjörður Airport;64.295601;-15.2272;24;EU;IS;IS-8;Höfn
BIHT;FLI;Holt Airport;66.0141804294;-23.4416913986;10;EU;IS;IS-4;Flateyri
BIHU;HZK;Húsavík Airport;65.952301;-17.426001;48;EU;IS;IS-6;Húsavík
BIHV;HVM;Krókstaðarmelar Airport;65.26640319824219;-20.846900939941406;164;EU;IS;IS-5;Hvammstangi
BIID;HLO;Ingjaldssanður Airport;66.05000305175781;-23.69610023498535;70;EU;IS;IS-4;Onundarfjörður
BIIS;IFJ;Ísafjörður Airport;66.05809783935547;-23.135299682617188;8;EU;IS;IS-4;Ísafjörður
BIKF;KEF;Keflavik International Airport;63.985001;-22.6056;171;EU;IS;IS-2;Reykjavík
BIKP;OPA;Kópasker Airport;66.31079864501953;-16.466699600219727;20;EU;IS;IS-6;Kópasker
BIKR;SAK;Sauðárkrókur Airport;65.73169708249999;-19.572799682599996;8;EU;IS;IS-5;Sauðárkrókur
BINF;NOR;Norðfjörður Airport;65.13189697265625;-13.746399879455566;13;EU;IS;IS-7;Norðfjörður
BIOF;OFJ;Ólafsfjörður Airport;66.08329772949219;-18.66670036315918;32;EU;IS;IS-6;Ólafsfjörður
BIPA;PFJ;Patreksfjörður Airport;65.555801;-23.965;11;EU;IS;IS-4;Patreksfjörður
BIRE;RHA;Reykhólar Airport;65.45262908935547;-22.20611572265625;60;EU;IS;IS-4;Reykhólar
BIRF;OLI;Rif Airport;64.9113998413;-23.8230991364;18;EU;IS;IS-3;Rif
BIRG;RFN;Raufarhöfn Airport;66.40640258789062;-15.918299674987793;39;EU;IS;IS-6;Raufarhöfn
BIRK;RKV;Reykjavik Airport;64.1299972534;-21.9405994415;48;EU;IS;IS-1;Reykjavik
BIRL;MVA;Reykjahlíð Airport;65.65579986572266;-16.918100357055664;1030;EU;IS;IS-6;Myvatn
BISI;SIJ;Siglufjörður Airport;66.137847;-18.908157;10;EU;IS;IS-6;Siglufjörður
BIST;SYK;Stykkishólmur Airport;65.05809783935547;-22.794200897216797;42;EU;IS;IS-3;Stykkishólmur
BITE;TEY;Þingeyri Airport;65.87030029296875;-23.559999465942383;65;EU;IS;IS-4;Þingeyri
BITN;THO;Þórshöfn Airport;66.218498;-15.3356;65;EU;IS;IS-6;Þórshöfn
BIVM;VEY;Vestmannaeyjar Airport;63.42430114746094;-20.278900146484375;326;EU;IS;IS-8;Vestmannaeyjar
BIVO;VPN;Vopnafjörður Airport;65.72059631347656;-14.850600242614746;16;EU;IS;IS-7;Vopnafjörður
BJE;BJE;Baleela Airport;11.199444444400001;28.5230555556;1690;AF;SD;SD-13;Baleela Base Camp
BJQ;BJQ;Bahja Airport;19.8730555556;56.067777777799996;515;AS;OM;OM-WU;Bahja
BJT;BJT;Bentota River Waterdrome;6.431;79.996;;AS;LK;LK-1;Bentota
BKPR;PRN;Priština Adem Jashari International Airport;42.5728;21.035801;1789;EU;XK;XK-01;Prishtina
BMH;BMH;Bomai Airport;-6.37316666667;144.637;3300;OC;PG;PG-CPK;Bomai
BMQ;BMQ;Bamburi Airport;-3.983363;39.730982;52;AF;KE;KE-300;Bamburi
BMZ;BMZ;Bamu Airport;-7.8485;143.2433;50;OC;PG;PG-WPD;Bamu
BNF;BNF;Baranof Warm Springs Float and Seaplane Base;57.088799;-134.833146;0;NA;US;US-AK;Baranof
BNM;BNM;Bodinumu Airport;-9.107777777779999;147.666722222;3700;OC;PG;PG-CPM;Bodinumu
BNT;BNT;Bundi Airport;-5.742222222220001;145.2275;4400;OC;PG;PG-MPM;Bundi
BO-0001;RBQ;Rurenabaque Airport;-14.427900314299999;-67.4968032837;676;SA;BO;BO-B;Rurenabaque
BO-BVL;BVL;Baures Airport;-13.583333015400001;-63.5833320618;470;SA;BO;BO-B;Baures
BOF;BOF;Bolling Air Force Base;38.854049;-77.012046;20;NA;US;US-DC;Washington
BOK;BOK;Brookings Airport;42.0746;-124.290001;459;NA;US;US-OR;Brookings
BOT;BOT;Bosset Airport;-7.237257;141.1063222;80;OC;PG;PG-WPD;Bosset
BOV;BOV;Boang Airport;-3.3834;153.2812;85;OC;PG;PG-NIK;Boang Island
BPF;BPF;Batuna Aerodrome;-8.56202777778;158.119305556;24;OC;SB;SB-WE;Batuna Mission Station
BQV;BQV;Bartlett Cove Seaplane Base;58.4552001953;-135.884994507;0;NA;US;US-AK;Gustavus
BR-0569;VDC;Glauber de Andrade Rocha Airport;-14.907885;-40.914804;2940;SA;BR;BR-BA;Vitória da Conquista
BR-ALT;ALT;Alenquer Municipal Airport;-1.917;-54.7231;55;SA;BR;BR-PA;Alenquer
BS-NSB;NSB;Bimini North Seaplane Base;25.767000198364258;-79.25;;NA;BS;BS-BI;Bimini
BSP;BSP;Bensbach Airport;-8.85805555556;141.259444444;30;OC;PG;PG-WPD;Bensbach
BSV;BSV;Besakoa Airport;-15.6725;47.061667;40;AF;MG;MG-M;Besakoa
BTZ;BTZ;Betong International Airport;5.79;101.15;761;AS;TH;TH-95;Betong
BUL;BUL;Bulolo Airport;-7.216286671410001;146.649541855;2240;OC;PG;PG-MPL;Bulolo
BVR;BVR;Esperadinha Airport;14.864306;-24.746;64;AF;CV;CV-S;Brava Island
BW-HUK;HUK;Hukuntsi Airport;-23.9897;21.758101;3720;AF;BW;BW-KG;Hukuntsi
BWJ;BWJ;Bawan Airport;-6.396944444440001;146.881666667;4700;OC;PG;PG-MPL;
BWP;BWP;Bewani Airport;-3.0216666666700003;141.165277778;550;OC;PG;PG-SAN;Bewani
BXL;BXL;Blue Lagoon Seaplane Base;-16.943;177.368;0;OC;FJ;FJ-W;Nanuya Lailai Island
BXZ;BXZ;Bunsil Airport;-5.7243;147.8667;201;OC;PG;PG-MPL;Bunsil - Umboi Island
BY-0001;TXC;Orsha Airport - Balbasovo Air Base;54.439999;30.2967;620;EU;BY;BY-VI;Orsha
BYA;BYA;Boundary Airport;64.0783004761;-141.113006592;2940;NA;US;US-AK;Boundary
BYL;BYL;Bella Yella Airport;7.36916666667;-9.99372222222;690;AF;LR;LR-LO;Beliyela
BYV;BYV;Beira Lake Seaplane Base;6.9294444444400005;79.85416666670001;17;AS;LK;LK-1;Colombo
BZ-BCV;BCV;Hector Silva Airstrip;17.269603;-88.776496;150;NA;BZ;BZ-CY;Belmopan
BZ-BGK;BGK;Big Creek Airport;16.519369;-88.407913;22;NA;BZ;BZ-SC;Big Creek
BZ-CUK;CUK;Caye Caulker Airport;17.735015;-88.032862;2;NA;BZ;BZ-BZ;Caye Caulker
BZ-CYC;CYC;Caye Chapel Airport;17.683792;-88.044985;3;NA;BZ;BZ-BZ;Caye Chapel
BZ-CZH;CZH;Corozal Municipal Airport;18.382200241088867;-88.41190338134766;40;NA;BZ;BZ-CZL;Corozal
BZ-DGA;DGA;Dangriga Airport;16.98251;-88.230988;508;NA;BZ;BZ-SC;Dangriga
BZ-INB;INB;Independence Airport;16.5345;-88.441299;18;NA;BZ;BZ-SC;Independence
BZ-MDB;MDB;Melinda Airport;17.0042991638;-88.30419921880001;101;NA;BZ;BZ-SC;Melinda
BZ-ORZ;ORZ;Orange Walk Airport;18.0467662811;-88.58386993410001;111;NA;BZ;BZ-OW;Orange Walk
BZ-PLJ;PLJ;Placencia Airport;16.536956787109375;-88.36151123046875;3;NA;BZ;BZ-SC;Placencia
BZ-PND;PND;Punta Gorda Airport;16.102399826;-88.80829620360001;7;NA;BZ;BZ-TOL;Punta Gorda
BZ-SJX;SJX;Sartaneja Airport;18.35610008239746;-88.13079833984375;3;NA;BZ;BZ-CZL;Sartaneja
BZ-SPR;SPR;John Greif II Airport;17.9139;-87.9711;4;NA;BZ;BZ-CY;San Pedro
BZ-SQS;SQS;Matthew Spain Airport;17.185898;-89.009936;199;NA;BZ;BZ-CY;San Ignacio
BZ-STU;STU;Santa Cruz Airport;18.2721004486084;-88.456298828125;18;NA;BZ;BZ-CZL;Santa Cruz
BZ-SVK;SVK;Silver Creek Airport;16.728338;-88.369174;216;NA;BZ;BZ-SC;Silver Creek
BZ-TZA;TZA;Sir Barry Bowen Municipal Airport;17.51639;-88.194443;8;NA;BZ;BZ-BZ;Belize City
BZB;BZB;Bazaruto Island Airport;-21.5411;35.4729;;AF;MZ;MZ-I;Bazaruto Island
BZM;BZM;Bemolanga Airport;-17.6925;45.0888333333;950;AF;MG;MG-M;Bemolanga
CA-0446;YRR;Stuart Island Airstrip;50.4094474336;-125.131616592;360;NA;CA;CA-BC;Big Bay
CA-0504;YMV;Mary River Aerodrome;71.324167;-79.356944;584;NA;CA;CA-NU;Mary River
CAB3;YBW;Bedwell Harbour Seaplane Base;48.75;-123.233001709;0;NA;CA;CA-BC;Bedwell Harbour
CAB4;YTP;Tofino Harbour Seaplane Base;49.155;-125.91;0;NA;CA;CA-BC;Tofino Harbour
CAC8;ZNA;Nanaimo Harbour Water Airport;49.169813;-123.933845;;NA;CA;CA-BC;Nanaimo
CAD4;YZZ;Trail Airport;49.055599;-117.609001;1427;NA;CA;CA-BC;Trail
CAD5;YMB;Merritt Airport;50.122798919699996;-120.747001648;2080;NA;CA;CA-BC;Merritt
CAE3;YHH;Campbell River Seaplane Base;50.049999;-125.25;;NA;CA;CA-BC;Campbell River
CAE5;YWS;Whistler/Green Lake Water Aerodrome;50.1436004639;-122.948997498;2100;NA;CA;CA-BC;Whistler
CAE9;YBF;Bamfield Seaplane Base;48.8333015442;-125.133003235;0;NA;CA;CA-BC;Bamfield
CAF6;YIG;Big Bay Seaplane Base;50.3923;-125.1372;;NA;CA;CA-BC;Stuart Island
CAG3;CJH;Chilko Lake (Tsylos Park Lodge) Airport;51.625797;-124.144478;3850;NA;CA;CA-BC;Chilko Lake
CAG8;YPT;Pender Harbour Seaplane Base;49.623785;-124.024884;;NA;CA;CA-BC;Sunshine Coast
CAH2;ZOF;Ocean Falls Seaplane Base;52.3666992188;-127.717002869;0;NA;CA;CA-BC;Ocean Falls
CAH3;YCA;Courtenay Airpark;49.679401397705;-124.9820022583;26;NA;CA;CA-BC;Courtenay
CAJ3;CFQ;Creston Valley Regional Airport - Art Sutcliffe Field;49.03689956665;-116.49800109863;2070;NA;CA;CA-BC;Creston
CAJ4;YAA;Anahim Lake Airport;52.451501;-125.303776;3635;NA;CA;CA-BC;Anahim Lake
CAL3;DGF;Douglas Lake Airport;50.1654600485;-120.171273351;2770;NA;CA;CA-BC;Douglas Lake
CAL4;JHL;Fort MacKay/Albian Aerodrome;57.223899841299996;-111.418998718;1048;NA;CA;CA-AB;Albian Village
CAL9;ZTS;Tahsis Seaplane Base;49.916698455799995;-126.666999817;0;NA;CA;CA-BC;Tahsis
CAM3;DUQ;Duncan Airport;48.754534;-123.709702;300;NA;CA;CA-BC;Duncan
CAP3;YHS;Sechelt-Gibsons Airport;49.460601806599996;-123.71900177;340;NA;CA;CA-BC;Sechelt
CAP7;YKK;Kitkatla Seaplane Base;53.7999992371;-130.432998657;;NA;CA;CA-BC;Kitkatla
CAQ8;WPL;Powell Lake Seaplane Base;49.8833007812;-124.532997131;183;NA;CA;CA-BC;
CAT4;XQU;Qualicum Beach Airport;49.3372;-124.393997;191;NA;CA;CA-BC;Qualicum Beach
CAT5;YMP;Port Mcneill Airport;50.5755996704;-127.028999329;225;NA;CA;CA-BC;Port Mcneill
CAU8;YRN;Rivers Inlet Seaplane Base;51.683985;-127.264044;0;NA;CA;CA-BC;Rivers Inlet
CAV5;YTG;Sullivan Bay Seaplane Base;50.885359;-126.831069;0;NA;CA;CA-BC;Sullivan Bay
CAV7;YMU;Mansons Landing Seaplane Base;50.0666999817;-124.983001709;;NA;CA;CA-BC;
CAW8;YSX;Bella Bella/Shearwater Seaplane Base;52.150002;-128.08299;0;NA;CA;CA-BC;Bella Bella
CAX6;YGG;Ganges Seaplane Base;48.8545;-123.4969;0;NA;CA;CA-BC;Salt Spring Island
CAY4;YTB;Hartley Bay Seaplane Base;53.416698;-129.25;0;NA;CA;CA-BC;Hartley Bay
CAZ5;YZA;Cache Creek-Ashcroft Regional Airport;50.775258;-121.321314;2034;NA;CA;CA-BC;Cache Creek
CBBC;ZEL;Bella Bella (Campbell Island) Airport;52.185001;-128.156994;141;NA;CA;CA-BC;Bella Bella
CBC;CBC;Cherrabun Airport;-18.917777777800005;125.537777778;540;OC;AU;AU-WA;
CBS8;YPB;Alberni Valley Regional Airport;49.321899;-124.931;250;NA;CA;CA-BC;Port Alberni
CBW4;YBO;Bob Quinn Lake Airport;56.9667015076;-130.25;2000;NA;CA;CA-BC;Bob Quinn Lake
CBX5;TNS;Tungsten (Cantung) Airport;61.956901550293;-128.20300292969;3500;NA;CA;CA-NT;Tungsten
CBX7;TUX;Tumbler Ridge Airport;55.025001525879;-120.93499755859;3075;NA;CA;CA-BC;Tumbler Ridge
CCA6;YWM;Williams Harbour Airport;52.566898345947266;-55.784698486328125;70;NA;CA;CA-NL;Williams Harbour
CCD4;YSO;Postville Airport;54.9105;-59.78507;193;NA;CA;CA-NL;Postville
CCE4;YBI;Black Tickle Airport;53.4693984985;-55.784999847399995;57;NA;CA;CA-NL;Black Tickle
CCK4;YFX;St. Lewis (Fox Harbour) Airport;52.372798919677734;-55.67390060424805;74;NA;CA;CA-NL;St. Lewis
CCP4;YHA;Port Hope Simpson Airport;52.528099060058594;-56.28609848022461;347;NA;CA;CA-NL;Port Hope Simpson
CCZ2;YRG;Rigolet Airport;54.1796989440918;-58.45750045776367;180;NA;CA;CA-NL;Rigolet
CDK2;DVK;Diavik Airport;64.5113983154;-110.289001465;1413;NA;CA;CA-NT;Diavik
CDL7;JOJ;Doris Lake;68.1252746582;-106.585281372;50;NA;CA;CA-NU;Hope Bay
CEB5;ZFW;Fairview Airport;56.081401825;-118.434997559;2166;NA;CA;CA-AB;Fairview
CEC4;YJP;Hinton/Jasper-Hinton Airport;53.3191986084;-117.752998352;4006;NA;CA;CA-AB;Hinton
CEM3;YLE;Whatì Airport;63.13169860839844;-117.24600219726562;882;NA;CA;CA-NT;Whatì
CER3;YDC;Drayton Valley Industrial Airport;53.265800476074;-114.95999908447;2776;NA;CA;CA-AB;Drayton Valley
CER4;NML;Fort McMurray / Mildred Lake Airport;57.0555992126;-111.573997498;1046;NA;CA;CA-AB;Fort McMurray
CET2;CFM;Conklin (Leismer) Airport;55.695301;-111.278999;1930;NA;CA;CA-AB;Conklin
CEW3;ZSP;St. Paul Airport;53.9933013916;-111.379997253;2147;NA;CA;CA-AB;St. Paul
CFA7;GSL;Taltheilei Narrows Airport;62.5980987549;-111.542999268;570;NA;CA;CA-NT;Taltheilei Narrows
CFC4;XMP;Macmillan Pass Airport;63.181098938;-130.20199585;3810;NA;CA;CA-YT;Macmillan Pass
CFF4;DAS;Great Bear Lake Airport;66.7031021118;-119.707000732;562;NA;CA;CA-NT;Great Bear Lake
CFG6;YFI;Fort Mackay / Firebag;57.275833;-110.976666;1762;NA;CA;CA-AB;Suncor Energy Site
CFJ2;YFJ;Wekweètì Airport;64.190804;-114.077002;1208;NA;CA;CA-NT;Wekweètì
CFM4;YOE;Donnelly Airport;55.7094;-117.094002;1949;NA;CA;CA-AB;Donnelly
CFQ4;TIL;Cheadle Airport;51.057498931885;-113.62400054932;3300;NA;CA;CA-AB;Cheadle
CG-OKG;OKG;Okoyo Airport;-1.4483300447464;15.073300361633;1415;AF;CG;CG-8;Okoyo
CGA;CGA;Craig Seaplane Base;55.47880172729492;-133.1479949951172;;NA;US;US-AK;Craig
CGC;CGC;Cape Gloucester Airport;-5.458965;148.432417;78;OC;PG;PG-WBK;Cape Gloucester
CGG;CGG;Casiguran Airport;16.1941;122.0651;48;AS;PH;PH-AUR;Casiguran
CGK2;GHK;Gahcho Kue;63.435198;-109.144812;1371;NA;CA;CA-NT;
CHP;CHP;Circle Hot Springs Airport;65.485496521;-144.610992432;956;NA;US;US-AK;Circle Hot Springs
CIV;CIV;Chomley Seaplane Base;55.217;-132.21;0;NA;US;US-AK;Chomley
CJC8;LRQ;Laurie River Airport;56.2486000061;-101.304000854;1200;NA;CA;CA-MB;Laurie River
CJL2;YDJ;Hatchet Lake Airport;58.662498474121;-103.53800201416;1362;NA;CA;CA-SK;Hatchet Lake
CJL8;YDU;Kasba Lake Airport;60.291900634766;-102.50199890137;1131;NA;CA;CA-NT;Kasba Lake
CJN8;YFL;Fort Reliance Seaplane Base;62.7;-109.167;514;NA;CA;CA-NT;Fort Reliance
CJS3;XCL;Cluff Lake Airport;58.3911018372;-109.51599884;1112;NA;CA;CA-SK;Cluff Lake
CJT3;YKE;Knee Lake Airport;54.915298;-94.798103;625;NA;CA;CA-MB;Knee Lake
CJV7;SUR;Summer Beaver Airport;52.70859909057617;-88.54190063476562;832;NA;CA;CA-ON;Summer Beaver
CJX;CKD;Crooked Creek Airport;61.8679008484;-158.134994507;178;NA;US;US-AK;Crooked Creek
CJY3;YTT;Tisdale Airport;52.836700439453;-104.06700134277;1525;NA;CA;CA-SK;Tisdale
CKB6;YAX;Wapekeka Airport;53.84920120239258;-89.57939910888672;712;NA;CA;CA-ON;Angling Lake
CKL3;WNN;Wunnumin Lake Airport;52.89390182495117;-89.28919982910156;819;NA;CA;CA-ON;Wunnumin Lake
CKM8;YBS;Opapimiskan Lake Airport;52.6067008972;-90.3768997192;1023;NA;CA;CA-ON;Opapimiskan Lake
CKQ3;YNO;North Spirit Lake Airport;52.4900016784668;-92.97109985351562;1082;NA;CA;CA-ON;North Spirit Lake
CKR;CKR;Crane Island Airstrip;48.5978;-122.9979;108;NA;US;US-WA;Crane Island
CKU;CKU;Cordova Municipal Airport;60.5438995361;-145.727005005;12;NA;US;US-AK;Cordova
CKV4;YDW;North of Sixty Airport;60.316398620605;-103.12899780273;1195;NA;CA;CA-NT;Obre Lake
CKX;CKX;Chicken Airport;64.0712966919;-141.95199585;1640;NA;US;US-AK;Chicken
CMT;CMT;New Cametá Airport;-2.2468;-49.56;60;SA;BR;BR-PA;Cametá
CMZ;CMZ;Caia Airport;-17.8331;35.3341;156;AF;MZ;MZ-S;Caia
CN-0005;TVS;Tangshan Sannühe Airport;39.7178001404;118.002624512;50;AS;CN;CN-13;Tangshan
CN-0012;YUA;Yuanmou Air Base;25.737499237061;101.88200378418;3810;AS;CN;CN-53;Yuanmou
CN-0024;ZQZ;Zhangjiakou Ningyuan Airport;40.7386016846;114.930000305;2347;AS;CN;CN-13;Zhangjiakou
CN-0027;BSD;Baoshan Yunrui Airport;25.053301;99.168297;5453;AS;CN;CN-53;Baoshan
CN-0034;DZU;Dazu Air Base;29.636227;105.773621;1220;AS;CN;CN-50;Dazu
CN-0040;LNJ;Lincang Boshang Airport;23.7381;100.025002;6230;AS;CN;CN-53;Lincang
CN-0046;RKZ;Xigaze Peace Airport / Shigatse Air Base;29.3519;89.311401;3782;AS;CN;CN-54;Xigazê
CN-0050;PZI;Bao'anying Airport;26.54;101.79852;1620;AS;CN;CN-51;Panzhihua
CN-0051;ZKL;Zigong Fengming Airport;29.376484;104.625789;1133;AS;CN;CN-51;Zigong
CN-0061;FUO;Foshan Shadi Airport;23.0833;113.07;6;AS;CN;CN-44;Foshan (Nanhai)
CN-0062;BZX;Bazhong Enyang Airport;31.73842;106.644872;1804;AS;CN;CN-51;Bazhong
CN-0067;XAI;Xinyang Minggang Airport;32.540819;114.079141;312;AS;CN;CN-41;Xinyang
CN-0068;HUZ;Huizhou Pingtan Airport;23.049999;114.599998;50;AS;CN;CN-44;Huizhou (Pingtan)
CN-0073;DFA;Shangluo Airport;33.708533;110.249284;;AS;CN;CN-61;Danfeng
CN-0079;HSC;Shaoguan Danxia Airport;24.9786;113.420998;280;AS;CN;CN-44;Shaoguan
CN-0081;JGS;Jinggangshan Airport;26.856899;114.737;281;AS;CN;CN-36;Ji'an
CN-0082;AEB;Baise Youjiang Airport;23.7206;106.959999;490;AS;CN;CN-45;Baise (Tianyang)
CN-0089;LYG;Lianyungang Huaguoshan International Airport;34.41406;119.17899;;AS;CN;CN-32;Lianyungang
CN-0091;DOY;Dongying Shengli Airport;37.5085983276;118.788002014;15;AS;CN;CN-37;Dongying
CN-0104;XEN;Xingcheng Air Base;40.580328;120.700374;30;AS;CN;CN-21;Xingcheng, Huludao
CN-0113;AAT;Altay Airport;47.749886;88.085808;2460;AS;CN;CN-65;Altay
CN-0130;THQ;Tianshui Maijishan Airport;34.559399;105.860001;3590;AS;CN;CN-62;Tianshui
CN-0143;YZY;Zhangye Ganzhou Airport;38.801899;100.675003;5280;AS;CN;CN-62;Zhangye
CN-0157;DWS;Morin Dawa Banner Airport;48.38745;124.43127;722;AS;CN;CN-15;Hulunbuir
CN-0177;LCT;Shijiazhuang Luancheng Airport;37.91305;114.59166;197;AS;CN;CN-13;Shijiazhuang
CN-0188;NAY;Beijing Nanjiao Airport;39.48595;116.37236;;AS;CN;CN-11;Beijing
CN-0189;DDG;Dandong Langtou Airport;40.0247;124.286003;30;AS;CN;CN-21;Zhenxing, Dandong
CN-0236;DDR;Xigaze Dingri Airport;28.604567;86.798;14108;AS;CN;CN-54;Xigaze
CN-0253;JDE;Jiande Qiandaohu General Airport;29.360905;119.180829;249;AS;CN;CN-33;Hangzhou
CN-0268;HLJ;Zhaodong Beidahuang General Airport;46.12779;125.77354;469;AS;CN;CN-23;Suihua
CN-0300;TYC;Taiyuan Yaocheng Airport;37.50312;112.424126;;AS;CN;CN-14;Taiyuan
CN-0353;ZHA;Zhanjiang Wuchuan Airport;21.481667;110.590278;;AS;CN;CN-44;Zhanjiang
CN-NTG;NTG;Nantong Xingdong International Airport;32.070801;120.975998;16;AS;CN;CN-32;Nantong
CNE3;XBE;Bearskin Lake Airport;53.965599060058594;-91.0271987915039;800;NA;CA;CA-ON;Bearskin Lake
CNH2;YNP;Natuashish Airport;55.913898;-61.184399;30;NA;CA;CA-NL;Natuashish
CNJ8;YWR;White River Seaplane Base;48.6269;-85.223297;1380;NA;CA;CA-ON;White River
CNK4;YPD;Parry Sound Area Municipal Airport;45.2575;-79.829697;832;NA;CA;CA-ON;Parry Sound
CNL3;XBR;Brockville - Thousand Islands Regional Tackaberry Airport;44.6394004822;-75.7502975464;402;NA;CA;CA-ON;Brockville
CNM5;KIF;Kingfisher Lake Airport;53.01250076293945;-89.85530090332031;866;NA;CA;CA-ON;Kingfisher Lake
CNT3;YOG;Ogoki Post Airport;51.6585998535;-85.9017028809;594;NA;CA;CA-ON;Ogoki Post
CO-0039;PRM;Proma Heliport;4.728056;-74.084444;;SA;CO;CO-CUN;Bogota
CO-ARQ;ARQ;El Troncal Airport;7.02106;-71.388901;512;SA;CO;CO-ARA;Arauquita
CO-LCR;LCR;La Chorrera Airport;-0.733333;-73.01667;709;SA;CO;CO-AMA;La Chorrera
CO-SNT;SNT;Las Cruces Airport;7.38322;-73.505402;440;SA;CO;CO-SAN;Sabana De Torres
CO-TCD;TCD;Tarapacá Airport;-2.894722;-69.747222;253;SA;CO;CO-AMA;Tarapacá
CPF2;YEB;Bar River Airport;46.42029953;-84.0922012329;591;NA;CA;CA-ON;Bar River
CPI;CPI;Cape Orford Airport;-5.44833333333;152.081944444;20;OC;PG;PG-EBR;
CPS9;YSI;Parry Sound/Frying Pan Island-Sans Souci Seaplane Base;45.173302;-80.137497;580;NA;CA;CA-ON;Frying Pan Island
CPV7;YHP;Poplar Hill Airport;52.1133;-94.2556;1095;NA;CA;CA-ON;Poplar Hill
CPV8;KEW;Keewaywin Airport;52.991100311299995;-92.8364028931;988;NA;CA;CA-ON;Keewaywin
CRL4;KFM;Kirby Lake Airport;55.355598;-110.637001;2260;NA;CA;CA-AB;Kirby Lake
CSB2;YSA;Sable Island Landing Strip;43.930951;-59.996147;4;NA;CA;CA-NS;Sable Island
CSH4;YLS;Lebel-sur-Quevillon Airport;49.0303001404;-77.0171966553;960;NA;CA;CA-QC;Lebel-sur-Quévillon
CSK6;YNX;Snap Lake Airport;63.593601;-110.905998;1557;NA;CA;CA-NT;Snap Lake Mine
CSR8;SSQ;La Sarre Airport;48.917198181152;-79.178596496582;1048;NA;CA;CA-QC;La Sarre
CSU2;YKU;Chisasibi Airport;53.805599212646484;-78.91690063476562;43;NA;CA;CA-QC;Chisasibi
CT88;EHT;Rentschler Heliport;41.7517;-72.6253;30;NA;US;US-CT;East Hartford
CTB6;ZTB;Tête-à-la-Baleine Airport;50.674400329589844;-59.38359832763672;107;NA;CA;CA-QC;Tête-à-la-Baleine
CTK6;ZKG;Kegaska Airport;50.1958007812;-61.265800476100004;32;NA;CA;CA-QC;Kegaska
CTM3;YWQ;Chute-Des-Passes/Lac Margane Seaplane Base;49.9434;-71.138;1310;NA;CA;CA-QC;Chutes-des-Passes
CTP;CTP;Carutapera Airport;-1.225365;-46.019057;85;SA;BR;BR-MA;Carutapera
CTP9;YAU;Donaldson Airport;61.6622009277;-73.3214035034;1902;NA;CA;CA-QC;Kattiniq
CTR7;TR7;Ottawa / Rockcliffe Seaplane Base;45.463832946100005;-75.64254283910002;;NA;CA;CA-ON;Ottawa
CTT5;ZGS;La Romaine Airport;50.259701;-60.679401;90;NA;CA;CA-QC;La Romaine
CTU2;YFG;Fontanges Airport;54.553901672363;-71.173301696777;1550;NA;CA;CA-QC;Fontanges
CTU5;ZLT;La Tabatière Airport;50.8307991027832;-58.97560119628906;102;NA;CA;CA-QC;La Tabatière
CUJ;CUJ;Culion Airport;11.8553;119.9378;155;AS;PH;PH-PLW;Culion Island
CVH;HLI;Hollister Municipal Airport;36.8932991028;-121.410003662;230;NA;US;US-CA;Hollister
CVL;CVL;Cape Vogel Airport;-9.67;150.019722222;20;OC;PG;PG-MBA;
CXC;CXC;Chitina Airport;61.582901001;-144.427001953;556;NA;US;US-AK;Chitina
CY-0002;GEC;Lefkoniko Airport / Geçitkale Air Base;35.235947;33.724358;146;AS;CY;CY-03;Geçitkale
CYAB;YAB;Arctic Bay Airport;73.006101;-85.04616;72;NA;CA;CA-NU;Arctic Bay
CYAC;YAC;Cat Lake Airport;51.72719955444336;-91.82440185546875;1344;NA;CA;CA-ON;Cat Lake
CYAD;YAR;La Grande-3 Airport;53.5717010498;-76.19640350339999;775;NA;CA;CA-QC;La Grande-3
CYAG;YAG;Fort Frances Municipal Airport;48.655749;-93.44349;1125;NA;CA;CA-ON;Fort Frances
CYAH;YAH;La Grande-4 Airport;53.754699707;-73.6753005981;1005;NA;CA;CA-QC;La Grande-4
CYAL;YAL;Alert Bay Airport;50.58219909667969;-126.91600036621094;240;NA;CA;CA-BC;Alert Bay
CYAM;YAM;Sault Ste Marie Airport;46.485001;-84.509399;630;NA;CA;CA-ON;Sault Ste Marie
CYAQ;XKS;Kasabonika Airport;53.52470016479492;-88.6427993774414;672;NA;CA;CA-ON;Kasabonika
CYAS;YKG;Kangirsuk Airport;60.027198791503906;-69.99919891357422;403;NA;CA;CA-QC;Kangirsuk
CYAT;YAT;Attawapiskat Airport;52.9275016784668;-82.43190002441406;31;NA;CA;CA-ON;Attawapiskat
CYAY;YAY;St. Anthony Airport;51.3918991089;-56.083099365200006;108;NA;CA;CA-NL;St. Anthony
CYAZ;YAZ;Tofino / Long Beach Airport;49.079833;-125.775583;80;NA;CA;CA-BC;Tofino
CYBA;YBA;Banff Airport;51.208222;-115.540624;4583;NA;CA;CA-AB;Banff
CYBB;YBB;Kugaaruk Airport;68.534401;-89.808098;56;NA;CA;CA-NU;Kugaaruk
CYBC;YBC;Baie-Comeau Airport;49.1325;-68.204399;71;NA;CA;CA-QC;Baie-Comeau
CYBD;QBC;Bella Coola Airport;52.387501;-126.596001;117;NA;CA;CA-BC;Bella Coola
CYBE;YBE;Uranium City Airport;59.5614013671875;-108.48100280761719;1044;NA;CA;CA-SK;Uranium City
CYBF;YBY;Bonnyville Airport;54.304199;-110.744003;1836;NA;CA;CA-AB;Bonnyville
CYBG;YBG;CFB Bagotville;48.33060073852539;-70.99639892578125;522;NA;CA;CA-QC;Bagotville
CYBK;YBK;Baker Lake Airport;64.29889678960001;-96.077796936;59;NA;CA;CA-NU;Baker Lake
CYBL;YBL;Campbell River Airport;49.950802;-125.271004;346;NA;CA;CA-BC;Campbell River
CYBQ;XTL;Tadoule Lake Airport;58.7061;-98.512199;923;NA;CA;CA-MB;Tadoule Lake
CYBR;YBR;Brandon Municipal Airport;49.91;-99.951897;1343;NA;CA;CA-MB;Brandon
CYBT;YBT;Brochet Airport;57.8894;-101.679001;1136;NA;CA;CA-MB;Brochet
CYBV;YBV;Berens River Airport;52.358898;-97.018303;728;NA;CA;CA-MB;Berens River
CYBX;YBX;Lourdes-de-Blanc-Sablon Airport;51.4436;-57.185299;121;NA;CA;CA-QC;Lourdes-de-Blanc-Sablon
CYCA;YRF;Cartwright Airport;53.68280029296875;-57.041900634765625;40;NA;CA;CA-NL;Cartwright
CYCB;YCB;Cambridge Bay Airport;69.1081008911;-105.138000488;90;NA;CA;CA-NU;Cambridge Bay
CYCC;YCC;Cornwall Regional Airport;45.092637;-74.567724;175;NA;CA;CA-ON;Cornwall
CYCD;YCD;Nanaimo Airport;49.05497;-123.869863;92;NA;CA;CA-BC;Nanaimo
CYCE;YCE;Centralia / James T. Field Memorial Aerodrome;43.285599;-81.508301;824;NA;CA;CA-ON;Huron Park
CYCG;YCG;Castlegar/West Kootenay Regional Airport;49.2963981628;-117.632003784;1624;NA;CA;CA-BC;Castlegar
CYCH;YCH;Miramichi Airport;47.007801;-65.449203;108;NA;CA;CA-NB;Miramichi
CYCK;XCM;Chatham Kent Airport;42.3064002991;-82.0819015503;650;NA;CA;CA-ON;Chatham-Kent
CYCL;YCL;Charlo Airport;47.990799;-66.330299;132;NA;CA;CA-NB;Charlo
CYCN;YCN;Cochrane Airport;49.10559844970703;-81.01360321044922;861;NA;CA;CA-ON;Cochrane
CYCO;YCO;Kugluktuk Airport;67.816704;-115.143997;74;NA;CA;CA-NU;Kugluktuk
CYCQ;YCQ;Chetwynd Airport;55.687198638916016;-121.62699890136719;2000;NA;CA;CA-BC;Chetwynd
CYCR;YCR;Cross Lake (Charlie Sinclair Memorial) Airport;54.610599517822266;-97.76080322265625;709;NA;CA;CA-MB;Cross Lake
CYCS;YCS;Chesterfield Inlet Airport;63.346900939899996;-90.73110198970001;32;NA;CA;CA-NU;Chesterfield Inlet
CYCT;YCT;Coronation Airport;52.0750007629;-111.444999695;2595;NA;CA;CA-AB;Coronation
CYCW;YCW;Chilliwack Airport;49.153157;-121.939309;32;NA;CA;CA-BC;Chilliwack
CYCY;YCY;Clyde River Airport;70.4860992432;-68.5167007446;87;NA;CA;CA-NU;Clyde River
CYCZ;YCZ;Fairmont Hot Springs Airport;50.331052;-115.873739;2661;NA;CA;CA-BC;Fairmont Hot Springs
CYDA;YDA;Dawson City Airport;64.04309844970703;-139.1280059814453;1215;NA;CA;CA-YT;Dawson City
CYDB;YDB;Burwash Airport;61.37110137939453;-139.04100036621094;2647;NA;CA;CA-YT;Burwash
CYDF;YDF;Deer Lake Airport;49.21080017089844;-57.39139938354492;72;NA;CA;CA-NL;Deer Lake
CYDL;YDL;Dease Lake Airport;58.4221992493;-130.031997681;2600;NA;CA;CA-BC;Dease Lake
CYDM;XRR;Ross River Airport;61.9706001282;-132.42300415;2314;NA;CA;CA-YT;Ross River
CYDN;YDN;Dauphin Barker Airport;51.100799560546875;-100.052001953125;999;NA;CA;CA-MB;Dauphin
CYDO;YDO;Dolbeau St Felicien Airport;48.778499603271;-72.375;372;NA;CA;CA-QC;Dolbeau-St-Félicien
CYDP;YDP;Nain Airport;56.549198150634766;-61.680301666259766;22;NA;CA;CA-NL;Nain
CYDQ;YDQ;Dawson Creek Airport;55.7422981262207;-120.18299865722656;2148;NA;CA;CA-BC;Dawson Creek
CYEG;YEG;Edmonton International Airport;53.309700012200004;-113.580001831;2373;NA;CA;CA-AB;Edmonton
CYEK;YEK;Arviat Airport;61.0942001343;-94.07080078119999;32;NA;CA;CA-NU;Arviat
CYEL;YEL;Elliot Lake Municipal Airport;46.351398468;-82.5614013672;1087;NA;CA;CA-ON;Elliot Lake
CYEM;YEM;Manitoulin East Municipal Airport;45.842435;-81.857595;869;NA;CA;CA-ON;Sheguiandah
CYEN;YEN;Estevan Airport;49.2103004456;-102.966003418;1905;NA;CA;CA-SK;Estevan
CYER;YER;Fort Severn Airport;56.01890182495117;-87.67610168457031;48;NA;CA;CA-ON;Fort Severn
CYET;YET;Edson Airport;53.578899383499994;-116.464996338;3043;NA;CA;CA-AB;Edson
CYEU;YEU;Eureka Airport;79.9946975708;-85.814201355;256;NA;CA;CA-NU;Eureka
CYEV;YEV;Inuvik Mike Zubko Airport;68.30419921880001;-133.483001709;224;NA;CA;CA-NT;Inuvik
CYEY;YEY;Amos/Magny Airport;48.563903;-78.249702;1068;NA;CA;CA-QC;Amos
CYFA;YFA;Fort Albany Airport;52.20140075683594;-81.6968994140625;48;NA;CA;CA-ON;Fort Albany
CYFB;YFB;Iqaluit Airport;63.756402;-68.555801;110;NA;CA;CA-NU;Iqaluit
CYFC;YFC;Fredericton Airport;45.868900299072266;-66.53720092773438;68;NA;CA;CA-NB;Fredericton
CYFE;YFE;Forestville Airport;48.74610137939453;-69.09719848632812;293;NA;CA;CA-QC;Forestville
CYFH;YFH;Fort Hope Airport;51.5619010925293;-87.90779876708984;899;NA;CA;CA-ON;Fort Hope
CYFJ;YTM;Mont-Tremblant International Airport;46.409401;-74.779999;827;NA;CA;CA-QC;La Macaza
CYFO;YFO;Flin Flon Airport;54.6781005859375;-101.68199920654297;997;NA;CA;CA-MB;Flin Flon
CYFR;YFR;Fort Resolution Airport;61.1808013916;-113.690002441;526;NA;CA;CA-NT;Fort Resolution
CYFS;YFS;Fort Simpson Airport;61.76020050048828;-121.23699951171875;555;NA;CA;CA-NT;Fort Simpson
CYFT;YMN;Makkovik Airport;55.076900482177734;-59.1864013671875;234;NA;CA;CA-NL;Makkovik
CYGB;YGB;Texada Gillies Bay Airport;49.69419860839844;-124.51799774169922;326;NA;CA;CA-BC;Texada
CYGH;YGH;Fort Good Hope Airport;66.24079895019531;-128.6510009765625;268;NA;CA;CA-NT;Fort Good Hope
CYGK;YGK;Kingston Norman Rogers Airport;44.22529983520508;-76.5969009399414;305;NA;CA;CA-ON;Kingston
CYGL;YGL;La Grande Rivière Airport;53.625301361083984;-77.7042007446289;639;NA;CA;CA-QC;La Grande Rivière
CYGM;YGM;Gimli Industrial Park Airport;50.62810134887695;-97.04329681396484;753;NA;CA;CA-MB;Gimli
CYGO;YGO;Gods Lake Narrows Airport;54.55889892578125;-94.49140167236328;617;NA;CA;CA-MB;Gods Lake Narrows
CYGP;YGP;Gaspé (Michel-Pouliot) Airport;48.7752990723;-64.4785995483;112;NA;CA;CA-QC;Gaspé
CYGQ;YGQ;Geraldton Greenstone Regional Airport;49.77830123901367;-86.93939971923828;1144;NA;CA;CA-ON;Geraldton
CYGR;YGR;Îles-de-la-Madeleine Airport;47.42470169067383;-61.778099060058594;35;NA;CA;CA-QC;Îles-de-la-Madeleine
CYGT;YGT;Igloolik Airport;69.3647003174;-81.8161010742;174;NA;CA;CA-NU;Igloolik
CYGV;YGV;Havre-Saint-Pierre Airport;50.281898;-63.611401;124;NA;CA;CA-QC;Havre-Saint-Pierre
CYGW;YGW;Kuujjuarapik Airport;55.281898498535156;-77.76529693603516;34;NA;CA;CA-QC;Kuujjuarapik
CYGX;YGX;Gillam Airport;56.35749816894531;-94.71060180664062;476;NA;CA;CA-MB;Gillam
CYGZ;YGZ;Grise Fiord Airport;76.4261016846;-82.90920257570001;146;NA;CA;CA-NU;Grise Fiord
CYHA;YQC;Quaqtaq Airport;61.0463981628418;-69.6177978515625;103;NA;CA;CA-QC;Quaqtaq
CYHB;YHB;Hudson Bay Airport;52.8166999817;-102.310997009;1175;NA;CA;CA-SK;Hudson Bay
CYHC;CXH;Vancouver Harbour Water Aerodrome;49.291265;-123.11717;;NA;CA;CA-BC;Vancouver
CYHD;YHD;Dryden Regional Airport;49.831699;-92.744202;1354;NA;CA;CA-ON;Dryden
CYHE;YHE;Hope Airport / FVRD Regional Airpark;49.368865;-121.49495;128;NA;CA;CA-BC;Hope
CYHF;YHF;Hearst René Fontaine Municipal Airport;49.71419906616211;-83.68609619140625;827;NA;CA;CA-ON;Hearst
CYHH;YNS;Nemiscau Airport;51.69110107421875;-76.1355972290039;802;NA;CA;CA-QC;Nemiscau
CYHI;YHI;Ulukhaktok Holman Airport;70.76280212402344;-117.80599975585938;117;NA;CA;CA-NT;Ulukhaktok
CYHK;YHK;Gjoa Haven Airport;68.635597229;-95.84970092770001;152;NA;CA;CA-NU;Gjoa Haven
CYHM;YHM;John C. Munro Hamilton International Airport;43.173599243199995;-79.93499755859999;780;NA;CA;CA-ON;Hamilton
CYHN;YHN;Hornepayne Municipal Airport;49.19309997558594;-84.75890350341797;1099;NA;CA;CA-ON;Hornepayne
CYHO;YHO;Hopedale Airport;55.448299407958984;-60.228599548339844;39;NA;CA;CA-NL;Hopedale
CYHR;YHR;Chevery Airport;50.46889877319336;-59.63669967651367;39;NA;CA;CA-QC;Chevery
CYHT;YHT;Haines Junction Airport;60.78919982910156;-137.54600524902344;2150;NA;CA;CA-YT;Haines Junction
CYHU;YHU;Montréal / Saint-Hubert Airport;45.5175018311;-73.4169006348;90;NA;CA;CA-QC;Montréal
CYHY;YHY;Hay River / Merlyn Carter Airport;60.8396987915;-115.782997131;541;NA;CA;CA-NT;Hay River
CYHZ;YHZ;Halifax / Stanfield International Airport;44.8807983398;-63.5085983276;477;NA;CA;CA-NS;Halifax
CYIB;YIB;Atikokan Municipal Airport;48.7738990784;-91.6386032104;1408;NA;CA;CA-ON;Atikokan
CYID;YDG;Digby / Annapolis Regional Airport;44.5458450365;-65.7854247093;499;NA;CA;CA-NS;Digby
CYIF;YIF;St Augustin Airport;51.2117004395;-58.6582984924;20;NA;CA;CA-QC;St-Augustin
CYIK;YIK;Ivujivik Airport;62.417301177978516;-77.92530059814453;126;NA;CA;CA-QC;Ivujivik
CYIO;YIO;Pond Inlet Airport;72.6832962036;-77.9666976929;181;NA;CA;CA-NU;Pond Inlet
CYIV;YIV;Island Lake Airport;53.857200622558594;-94.65360260009766;770;NA;CA;CA-MB;Island Lake
CYJA;YJA;Jasper Airport;52.996418;-118.060233;3350;NA;CA;CA-AB;Jasper
CYJF;YJF;Fort Liard Airport;60.235801696799996;-123.46900177;708;NA;CA;CA-NT;Fort Liard
CYJN;YJN;St Jean Airport;45.29439926147461;-73.28109741210938;136;NA;CA;CA-QC;St Jean
CYJT;YJT;Stephenville Airport;48.5442008972168;-58.54999923706055;84;NA;CA;CA-NL;Stephenville
CYKA;YKA;Kamloops Airport;50.7022018433;-120.444000244;1133;NA;CA;CA-BC;Kamloops
CYKC;YKC;Collins Bay Airport;58.236099243199995;-103.678001404;1341;NA;CA;CA-SK;Collins Bay
CYKD;LAK;Aklavik/Freddie Carmichael Airport;68.223297;-135.00599;23;NA;CA;CA-NT;Aklavik
CYKF;YKF;Waterloo Airport;43.460800170899994;-80.3786010742;1055;NA;CA;CA-ON;Kitchener
CYKG;YWB;Kangiqsujuaq (Wakeham Bay) Airport;61.5886001587;-71.929397583;501;NA;CA;CA-QC;Kangiqsujuaq
CYKJ;YKJ;Key Lake Airport;57.256099700927734;-105.61799621582031;1679;NA;CA;CA-SK;Key Lake
CYKL;YKL;Schefferville Airport;54.805301666259766;-66.8052978515625;1709;NA;CA;CA-QC;Schefferville
CYKM;YKD;Kincardine Municipal Airport;44.201401;-81.606697;772;NA;CA;CA-ON;Kincardine
CYKO;AKV;Akulivik Airport;60.818599700927734;-78.14859771728516;75;NA;CA;CA-QC;Akulivik
CYKQ;YKQ;Waskaganish Airport;51.47330093383789;-78.75830078125;80;NA;CA;CA-QC;Waskaganish
CYKX;YKX;Kirkland Lake Airport;48.21030044555664;-79.98139953613281;1157;NA;CA;CA-ON;Kirkland Lake
CYKY;YKY;Kindersley Airport;51.5175018311;-109.180999756;2277;NA;CA;CA-SK;Kindersley
CYKZ;YKZ;Buttonville Municipal Airport;43.86220169067383;-79.37000274658203;650;NA;CA;CA-ON;Toronto
CYLA;YPJ;Aupaluk Airport;59.29669952392578;-69.59970092773438;119;NA;CA;CA-QC;Aupaluk
CYLB;YLB;Lac La Biche Airport;54.7703018188;-112.031997681;1884;NA;CA;CA-AB;Lac La Biche
CYLC;YLC;Kimmirut Airport;62.8499984741;-69.88330078119999;175;NA;CA;CA-NU;Kimmirut
CYLD;YLD;Chapleau Airport;47.81999969482422;-83.3467025756836;1470;NA;CA;CA-ON;Chapleau
CYLH;YLH;Lansdowne House Airport;52.19559860229492;-87.93419647216797;834;NA;CA;CA-ON;Lansdowne House
CYLJ;YLJ;Meadow Lake Airport;54.125301361083984;-108.52300262451172;1576;NA;CA;CA-SK;Meadow Lake
CYLK;YSG;Lutselk'e Airport;62.418303;-110.681998;596;NA;CA;CA-NT;Lutselk'e
CYLL;YLL;Lloydminster Airport;53.309200286865234;-110.072998046875;2193;NA;CA;CA-AB;Lloydminster
CYLQ;YLQ;La Tuque Airport;47.4096984863;-72.7889022827;548;NA;CA;CA-QC;La Tuque
CYLR;YLR;Leaf Rapids Airport;56.513301849365234;-99.98529815673828;959;NA;CA;CA-MB;Leaf Rapids
CYLS;YLK;Barrie-Lake Simcoe Regional Airport;44.485989;-79.555687;972;NA;CA;CA-ON;Barrie
CYLT;YLT;Alert Airport;82.517799;-62.280602;100;NA;CA;CA-NU;Alert
CYLU;XGR;Kangiqsualujjuaq (Georges River) Airport;58.71139907836914;-65.9927978515625;215;NA;CA;CA-QC;Kangiqsualujjuaq
CYLW;YLW;Kelowna International Airport;49.9561;-119.377998;1421;NA;CA;CA-BC;Kelowna
CYM;CYM;Chatham Seaplane Base;57.5149;-134.945999;0;NA;US;US-AK;Chatham
CYMA;YMA;Mayo Airport;63.61640167236328;-135.8679962158203;1653;NA;CA;CA-YT;Mayo
CYME;YME;Matane Airport;48.85689926147461;-67.45330047607422;102;NA;CA;CA-QC;Matane
CYMG;YMG;Manitouwadge Airport;49.083900451660156;-85.86060333251953;1198;NA;CA;CA-ON;Manitouwadge
CYMH;YMH;Mary's Harbour Airport;52.302799224853516;-55.847198486328125;38;NA;CA;CA-NL;Mary's Harbour
CYMJ;YMJ;Moose Jaw Air Vice Marshal C. M. McEwen Airport;50.330299377441406;-105.55899810791016;1892;NA;CA;CA-SK;Moose Jaw
CYML;YML;Charlevoix Airport;47.59749984741211;-70.2238998413086;977;NA;CA;CA-QC;Charlevoix
CYMM;YMM;Fort McMurray Airport;56.653301239;-111.222000122;1211;NA;CA;CA-AB;Fort McMurray
CYMO;YMO;Moosonee Airport;51.291099548339844;-80.60780334472656;30;NA;CA;CA-ON;Moosonee
CYMT;YMT;Chapais Airport;49.77190017700195;-74.5280990600586;1270;NA;CA;CA-QC;Chibougamau
CYMU;YUD;Umiujaq Airport;56.53609848022461;-76.51830291748047;250;NA;CA;CA-QC;Umiujaq
CYMW;YMW;Maniwaki Airport;46.2728;-75.990601;656;NA;CA;CA-QC;Maniwaki
CYMX;YMX;Montreal International (Mirabel) Airport;45.679501;-74.038696;270;NA;CA;CA-QC;Montréal
CYNA;YNA;Natashquan Airport;50.189998626708984;-61.78919982910156;39;NA;CA;CA-QC;Natashquan
CYNC;YNC;Wemindji Airport;53.01060104370117;-78.83110046386719;66;NA;CA;CA-QC;Wemindji
CYND;YND;Ottawa / Gatineau Airport;45.521702;-75.563599;211;NA;CA;CA-QC;Gatineau
CYNE;YNE;Norway House Airport;53.95830154418945;-97.84420013427734;734;NA;CA;CA-MB;Norway House
CYNH;YNH;Hudsons Hope Airport;56.0355987549;-121.975997925;2220;NA;CA;CA-BC;Hudson's Hope
CYNJ;YLY;Langley Airport;49.1008;-122.630997;34;NA;CA;CA-BC;Langley Twp
CYNL;YNL;Points North Landing Airport;58.27669906616211;-104.08200073242188;1605;NA;CA;CA-SK;Points North Landing
CYNM;YNM;Matagami Airport;49.76169967651367;-77.80280303955078;918;NA;CA;CA-QC;Matagami
CYNR;HZP;Fort Mackay / Horizon Airport;57.3816986084;-111.700996399;916;NA;CA;CA-AB;Fort Mackay
CYOA;YOA;Ekati Airport;64.6988983154;-110.614997864;1536;NA;CA;CA-NT;Ekati
CYOC;YOC;Old Crow Airport;67.57060241699219;-139.83900451660156;824;NA;CA;CA-YT;Old Crow
CYOD;YOD;CFB Cold Lake;54.404998779296875;-110.27899932861328;1775;NA;CA;CA-AB;Cold Lake
CYOH;YOH;Oxford House Airport;54.93330001831055;-95.27890014648438;663;NA;CA;CA-MB;Oxford House
CYOJ;YOJ;High Level Airport;58.62139892578125;-117.16500091552734;1110;NA;CA;CA-AB;High Level
CYOO;YOO;Oshawa Executive Airport;43.922798;-78.894997;460;NA;CA;CA-ON;Oshawa
CYOP;YOP;Rainbow Lake Airport;58.49140167236328;-119.40799713134766;1759;NA;CA;CA-AB;Rainbow Lake
CYOS;YOS;Owen Sound / Billy Bishop Regional Airport;44.5903015137;-80.8375015259;1007;NA;CA;CA-ON;Owen Sound
CYOW;YOW;Ottawa Macdonald-Cartier International Airport;45.3224983215332;-75.66919708251953;374;NA;CA;CA-ON;Ottawa
CYPA;YPA;Prince Albert Glass Field;53.214199066199996;-105.672996521;1405;NA;CA;CA-SK;Prince Albert
CYPC;YPC;Paulatuk (Nora Aliqatchialuk Ruben) Airport;69.3608381154;-124.075469971;15;NA;CA;CA-NT;Paulatuk
CYPD;YPS;Port Hawkesbury Airport;45.6567001343;-61.3680992126;377;NA;CA;CA-NS;Port Hawkesbury
CYPE;YPE;Peace River Airport;56.226898;-117.446999;1873;NA;CA;CA-AB;Peace River
CYPG;YPG;Portage-la-Prairie / Southport Airport;49.903099;-98.273817;885;NA;CA;CA-MB;Portage la Prairie
CYPH;YPH;Inukjuak Airport;58.471900939941406;-78.07689666748047;83;NA;CA;CA-QC;Inukjuak
CYPL;YPL;Pickle Lake Airport;51.4463996887207;-90.21420288085938;1267;NA;CA;CA-ON;Pickle Lake
CYPM;YPM;Pikangikum Airport;51.819698333740234;-93.97329711914062;1114;NA;CA;CA-ON;Pikangikum
CYPN;YPN;Port Menier Airport;49.83639907836914;-64.2885971069336;167;NA;CA;CA-QC;Port-Menier
CYPO;YPO;Peawanuck Airport;54.98809814453125;-85.44329833984375;173;NA;CA;CA-ON;Peawanuck
CYPQ;YPQ;Peterborough Municipal Airport;44.23;-78.363297;628;NA;CA;CA-ON;Peterborough
CYPR;YPR;Prince Rupert Airport;54.286098480199996;-130.445007324;116;NA;CA;CA-BC;Prince Rupert
CYPW;YPW;Powell River Airport;49.83420181274414;-124.5;425;NA;CA;CA-BC;Powell River
CYPX;YPX;Puvirnituq Airport;60.05059814453125;-77.28690338134766;74;NA;CA;CA-QC;Puvirnituq
CYPY;YPY;Fort Chipewyan Airport;58.7672004699707;-111.11699676513672;761;NA;CA;CA-AB;Fort Chipewyan
CYPZ;YPZ;Burns Lake Airport;54.3763999939;-125.950996399;2343;NA;CA;CA-BC;Burns Lake
CYQA;YQA;Muskoka Airport;44.974700927734375;-79.30329895019531;925;NA;CA;CA-ON;Muskoka
CYQB;YQB;Quebec Jean Lesage International Airport;46.7911;-71.393303;244;NA;CA;CA-QC;Quebec
CYQD;YQD;The Pas Airport;53.97140121459961;-101.09100341796875;887;NA;CA;CA-MB;The Pas
CYQF;YQF;Red Deer Regional Airport;52.182201;-113.893997;2968;NA;CA;CA-AB;Springbrook
CYQG;YQG;Windsor Airport;42.27560043334961;-82.95559692382812;622;NA;CA;CA-ON;Windsor
CYQH;YQH;Watson Lake Airport;60.11640167236328;-128.82200622558594;2255;NA;CA;CA-YT;Watson Lake
CYQI;YQI;Yarmouth Airport;43.826900482177734;-66.08809661865234;141;NA;CA;CA-NS;Yarmouth
CYQK;YQK;Kenora Airport;49.788299560546875;-94.36309814453125;1332;NA;CA;CA-ON;Kenora
CYQL;YQL;Lethbridge County Airport;49.6302986145;-112.800003052;3048;NA;CA;CA-AB;Lethbridge
CYQM;YQM;Greater Moncton Roméo LeBlanc International Airport;46.112202;-64.678596;232;NA;CA;CA-NB;Moncton
CYQN;YQN;Nakina Airport;50.18280029296875;-86.69640350341797;1057;NA;CA;CA-ON;Nakina
CYQQ;YQQ;Comox Valley Airport / CFB Comox;49.7108;-124.887001;84;NA;CA;CA-BC;Comox
CYQR;YQR;Regina International Airport;50.43190002441406;-104.66600036621094;1894;NA;CA;CA-SK;Regina
CYQS;YQS;St Thomas Municipal Airport;42.77000045776367;-81.11080169677734;778;NA;CA;CA-ON;St Thomas
CYQT;YQT;Thunder Bay Airport;48.37189865112305;-89.32389831542969;653;NA;CA;CA-ON;Thunder Bay
CYQU;YQU;Grande Prairie Airport;55.1796989441;-118.885002136;2195;NA;CA;CA-AB;Grande Prairie
CYQV;YQV;Yorkton Municipal Airport;51.26470184326172;-102.46199798583984;1635;NA;CA;CA-SK;Yorkton
CYQW;YQW;North Battleford Airport;52.769409;-108.243742;1799;NA;CA;CA-SK;North Battleford
CYQX;YQX;Gander International Airport;48.9369010925293;-54.56809997558594;496;NA;CA;CA-NL;Gander
CYQY;YQY;Sydney / J.A. Douglas McCurdy Airport;46.1614;-60.047798;203;NA;CA;CA-NS;Sydney
CYQZ;YQZ;Quesnel Airport;53.026100158691406;-122.51000213623047;1789;NA;CA;CA-BC;Quesnel
CYRA;YRA;Rae Lakes Airport;64.11609649658203;-117.30999755859375;723;NA;CA;CA-NT;Gamètì
CYRB;YRB;Resolute Bay Airport;74.7169036865;-94.9693984985;215;NA;CA;CA-NU;Resolute Bay
CYRI;YRI;Rivière-du-Loup Airport;47.764400482177734;-69.58470153808594;427;NA;CA;CA-QC;Rivière-du-Loup
CYRJ;YRJ;Roberval Airport;48.52000045776367;-72.2656021118164;586;NA;CA;CA-QC;Roberval
CYRL;YRL;Red Lake Airport;51.066898345947266;-93.79309844970703;1265;NA;CA;CA-ON;Red Lake
CYRM;YRM;Rocky Mountain House Airport;52.4296989441;-114.903999329;3244;NA;CA;CA-AB;Rocky Mountain House
CYRO;YRO;Ottawa / Rockcliffe Airport;45.4603004456;-75.64610290530001;188;NA;CA;CA-ON;Ottawa
CYRQ;YRQ;Trois-Rivières Airport;46.35279846191406;-72.67939758300781;199;NA;CA;CA-QC;Trois-Rivières
CYRS;YRS;Red Sucker Lake Airport;54.167198181152344;-93.55719757080078;729;NA;CA;CA-MB;Red Sucker Lake
CYRT;YRT;Rankin Inlet Airport;62.8114013672;-92.1157989502;94;NA;CA;CA-NU;Rankin Inlet
CYRV;YRV;Revelstoke Airport;50.962245;-118.184258;1459;NA;CA;CA-BC;Revelstoke
CYSB;YSB;Sudbury Airport;46.625;-80.79889678955078;1141;NA;CA;CA-ON;Sudbury
CYSC;YSC;Sherbrooke Airport;45.438599;-71.691399;792;NA;CA;CA-QC;Sherbrooke
CYSD;YSD;Suffield Heliport;50.266700744628906;-111.18299865722656;2525;NA;CA;CA-AB;Suffield
CYSE;YSE;Squamish Airport;49.7817001343;-123.162002563;171;NA;CA;CA-BC;Squamish
CYSF;YSF;Stony Rapids Airport;59.250301361083984;-105.84100341796875;805;NA;CA;CA-SK;Stony Rapids
CYSH;YSH;Smiths Falls-Montague (Russ Beach) Airport;44.945801;-75.940598;416;NA;CA;CA-ON;Smiths Falls
CYSJ;YSJ;Saint John Airport;45.31610107421875;-65.89029693603516;357;NA;CA;CA-NB;Saint John
CYSK;YSK;Sanikiluaq Airport;56.5377998352;-79.2466964722;104;NA;CA;CA-NU;Sanikiluaq
CYSL;YSL;St Leonard Airport;47.157501220703125;-67.83470153808594;793;NA;CA;CA-NB;St Leonard
CYSM;YSM;Fort Smith Airport;60.020302;-111.961998;671;NA;CA;CA-NT;Fort Smith
CYSN;YCM;Niagara District Airport;43.19169998168945;-79.17169952392578;321;NA;CA;CA-ON;St Catharines
CYSP;YSP;Marathon Airport;48.75529861450195;-86.34439849853516;1035;NA;CA;CA-ON;Marathon
CYST;YST;St. Theresa Point Airport;53.84560012817383;-94.85189819335938;773;NA;CA;CA-MB;St. Theresa Point
CYSU;YSU;Summerside Airport;46.440601;-63.833599;56;NA;CA;CA-PE;Slemon Park
CYSY;YSY;Sachs Harbour (David Nasogaluak Jr. Saaryuaq) Airport;71.9938964844;-125.242996216;282;NA;CA;CA-NT;Sachs Harbour
CYTA;YTA;Pembroke Airport;45.86439895629883;-77.25170135498047;529;NA;CA;CA-ON;Pembroke
CYTE;YTE;Cape Dorset Airport;64.230003;-76.526703;164;NA;CA;CA-NU;Kinngait
CYTF;YTF;Alma Airport;48.50889968869999;-71.64189910889999;445;NA;CA;CA-QC;Alma
CYTH;YTH;Thompson Airport;55.80110168457031;-97.86419677734375;729;NA;CA;CA-MB;Thompson
CYTL;YTL;Big Trout Lake Airport;53.81779861450195;-89.89689636230469;729;NA;CA;CA-ON;Big Trout Lake
CYTQ;YTQ;Tasiujaq Airport;58.66780090332031;-69.95580291748047;122;NA;CA;CA-QC;Tasiujaq
CYTR;YTR;CFB Trenton;44.118900299072266;-77.5280990600586;283;NA;CA;CA-ON;Trenton
CYTS;YTS;Timmins/Victor M. Power;48.569698333699996;-81.376701355;967;NA;CA;CA-ON;Timmins
CYTZ;YTZ;Billy Bishop Toronto City Centre Airport;43.627499;-79.396202;252;NA;CA;CA-ON;Toronto
CYUB;YUB;Tuktoyaktuk / James Gruben Airport;69.433296;-133.026001;15;NA;CA;CA-NT;Tuktoyaktuk
CYUL;YUL;Montreal / Pierre Elliott Trudeau International Airport;45.4706001282;-73.7407989502;118;NA;CA;CA-QC;Montréal
CYUT;YUT;Naujaat Airport;66.5214;-86.224701;80;NA;CA;CA-NU;Repulse Bay
CYUX;YUX;Hall Beach Airport;68.7761;-81.2425;30;NA;CA;CA-NU;Sanirajak
CYUY;YUY;Rouyn Noranda Airport;48.20610046386719;-78.83560180664062;988;NA;CA;CA-QC;Rouyn-Noranda
CYVB;YVB;Bonaventure Airport;48.07109832763672;-65.46029663085938;123;NA;CA;CA-QC;Bonaventure
CYVC;YVC;La Ronge Airport;55.151401519800004;-105.262001038;1242;NA;CA;CA-SK;La Ronge
CYVG;YVG;Vermilion Airport;53.355800628699996;-110.823997498;2025;NA;CA;CA-AB;Vermilion
CYVK;YVE;Vernon Airport;50.24810028076172;-119.33100128173828;1140;NA;CA;CA-BC;Vernon
CYVL;YCK;Tommy Kochon Airport;67.02;-126.126;870;NA;CA;CA-NT;Colville Lake
CYVM;YVM;Qikiqtarjuaq Airport;67.5457992554;-64.03140258789999;21;NA;CA;CA-NU;Qikiqtarjuaq
CYVO;YVO;Val-d'Or Airport;48.0532989502;-77.7827987671;1107;NA;CA;CA-QC;Val-d'Or
CYVP;YVP;Kuujjuaq Airport;58.096099853515625;-68.4269027709961;129;NA;CA;CA-QC;Kuujjuaq
CYVQ;YVQ;Norman Wells Airport;65.28160095214844;-126.7979965209961;238;NA;CA;CA-NT;Norman Wells
CYVR;YVR;Vancouver International Airport;49.193901062;-123.183998108;14;NA;CA;CA-BC;Vancouver
CYVT;YVT;Buffalo Narrows Airport;55.8418998718;-108.417999268;1423;NA;CA;CA-SK;Buffalo Narrows
CYVV;YVV;Wiarton Airport;44.7458;-81.107201;729;NA;CA;CA-ON;Wiarton
CYVZ;YVZ;Deer Lake Airport;52.655799865722656;-94.0614013671875;1092;NA;CA;CA-ON;Deer Lake
CYWA;YWA;Petawawa Airport;45.95220184326172;-77.31919860839844;427;NA;CA;CA-ON;Petawawa
CYWG;YWG;Winnipeg / James Armstrong Richardson International Airport;49.909999847399995;-97.2398986816;783;NA;CA;CA-MB;Winnipeg
CYWH;YWH;Victoria Harbour Seaplane Base;48.423782;-123.37198;;NA;CA;CA-BC;Victoria
CYWJ;YWJ;Déline Airport;65.21109771728516;-123.43599700927734;703;NA;CA;CA-NT;Déline
CYWK;YWK;Wabush Airport;52.92190170288086;-66.8644027709961;1808;NA;CA;CA-NL;Wabush
CYWL;YWL;Williams Lake Airport;52.1831016541;-122.054000854;3085;NA;CA;CA-BC;Williams Lake
CYWP;YWP;Webequie Airport;52.9593933975;-87.3748683929;685;NA;CA;CA-ON;Webequie
CYWY;YWY;Wrigley Airport;63.20940017700195;-123.43699645996094;489;NA;CA;CA-NT;Wrigley
CYXC;YXC;Cranbrook/Canadian Rockies International Airport;49.610801696777;-115.78199768066;3082;NA;CA;CA-BC;Cranbrook
CYXE;YXE;Saskatoon John G. Diefenbaker International Airport;52.170799255371094;-106.69999694824219;1653;NA;CA;CA-SK;Saskatoon
CYXH;YXH;Medicine Hat Regional Airport;50.018902;-110.721001;2352;NA;CA;CA-AB;Medicine Hat
CYXJ;YXJ;Fort St John Airport;56.238098;-120.739998;2280;NA;CA;CA-BC;Fort St.John
CYXK;YXK;Rimouski Airport;48.47809982299805;-68.49690246582031;82;NA;CA;CA-QC;Rimouski
CYXL;YXL;Sioux Lookout Airport;50.11389923095703;-91.9052963256836;1258;NA;CA;CA-ON;Sioux Lookout
CYXN;YXN;Whale Cove Airport;62.24000167849999;-92.59809875490001;40;NA;CA;CA-NU;Whale Cove
CYXP;YXP;Pangnirtung Airport;66.1449966431;-65.71360015869999;75;NA;CA;CA-NU;Pangnirtung
CYXQ;YXQ;Beaver Creek Airport;62.410301208496094;-140.86700439453125;2131;NA;CA;CA-YT;Beaver Creek
CYXR;YXR;Earlton (Timiskaming Regional) Airport;47.697400654599996;-79.8473453522;800;NA;CA;CA-ON;Earlton
CYXS;YXS;Prince George Airport;53.8894004822;-122.679000854;2267;NA;CA;CA-BC;Prince George
CYXT;YXT;Northwest Regional Airport Terrace-Kitimat;54.468498;-128.576009;713;NA;CA;CA-BC;Terrace
CYXU;YXU;London Airport;43.035599;-81.1539;912;NA;CA;CA-ON;London
CYXX;YXX;Abbotsford International Airport;49.025299;-122.361;195;NA;CA;CA-BC;Abbotsford
CYXY;YXY;Whitehorse / Erik Nielsen International Airport;60.709599;-135.067001;2317;NA;CA;CA-YT;Whitehorse
CYXZ;YXZ;Wawa Airport;47.96670150756836;-84.78669738769531;942;NA;CA;CA-ON;Wawa
CYYB;YYB;North Bay Jack Garland Airport;46.363602;-79.422798;1215;NA;CA;CA-ON;North Bay
CYYC;YYC;Calgary International Airport;51.113899231;-114.019996643;3557;NA;CA;CA-AB;Calgary
CYYD;YYD;Smithers Airport;54.82469940185547;-127.18299865722656;1712;NA;CA;CA-BC;Smithers
CYYE;YYE;Fort Nelson Airport;58.8363990784;-122.597000122;1253;NA;CA;CA-BC;Fort Nelson
CYYF;YYF;Penticton Airport;49.46310043334961;-119.60199737548828;1129;NA;CA;CA-BC;Penticton
CYYG;YYG;Charlottetown Airport;46.290000915527344;-63.12110137939453;160;NA;CA;CA-PE;Charlottetown
CYYH;YYH;Taloyoak Airport;69.5467;-93.576698;92;NA;CA;CA-NU;Taloyoak
CYYJ;YYJ;Victoria International Airport;48.6469;-123.426003;63;NA;CA;CA-BC;Victoria
CYYL;YYL;Lynn Lake Airport;56.86389923095703;-101.07599639892578;1170;NA;CA;CA-MB;Lynn Lake
CYYM;YYM;Cowley Airport;49.636398315399994;-114.09400177;3876;NA;CA;CA-AB;Cowley
CYYN;YYN;Swift Current Airport;50.291900634799994;-107.691001892;2680;NA;CA;CA-SK;Swift Current
CYYQ;YYQ;Churchill Airport;58.739200592041016;-94.06500244140625;94;NA;CA;CA-MB;Churchill
CYYR;YYR;Goose Bay Airport;53.3191986084;-60.4258003235;160;NA;CA;CA-NL;Goose Bay
CYYT;YYT;St. John's International Airport;47.618598938;-52.7518997192;461;NA;CA;CA-NL;St. John's
CYYU;YYU;Kapuskasing Airport;49.41389846801758;-82.46749877929688;743;NA;CA;CA-ON;Kapuskasing
CYYW;YYW;Armstrong Airport;50.29029846191406;-88.90969848632812;1058;NA;CA;CA-ON;Armstrong
CYYY;YYY;Mont Joli Airport;48.60860061645508;-68.20809936523438;172;NA;CA;CA-QC;Mont-Joli
CYYZ;YYZ;Lester B. Pearson International Airport;43.6772003174;-79.63059997559999;569;NA;CA;CA-ON;Toronto
CYZE;YZE;Gore Bay Manitoulin Airport;45.8853;-82.567802;623;NA;CA;CA-ON;Gore Bay
CYZF;YZF;Yellowknife International Airport;62.462799;-114.440002;675;NA;CA;CA-NT;Yellowknife
CYZG;YZG;Salluit Airport;62.17940139770508;-75.66719818115234;743;NA;CA;CA-QC;Salluit
CYZH;YZH;Slave Lake Airport;55.2930984497;-114.777000427;1912;NA;CA;CA-AB;Slave Lake
CYZP;YZP;Sandspit Airport;53.25429916379999;-131.813995361;21;NA;CA;CA-BC;Sandspit
CYZR;YZR;Chris Hadfield Airport;42.9994010925293;-82.30889892578125;594;NA;CA;CA-ON;Sarnia
CYZS;YZS;Coral Harbour Airport;64.1932983398;-83.3593978882;210;NA;CA;CA-NU;Coral Harbour
CYZT;YZT;Port Hardy Airport;50.680599212646484;-127.36699676513672;71;NA;CA;CA-BC;Port Hardy
CYZU;YZU;Whitecourt Airport;54.14390182495117;-115.78700256347656;2567;NA;CA;CA-AB;Whitecourt
CYZV;YZV;Sept-Îles Airport;50.22330093383789;-66.2656021118164;180;NA;CA;CA-QC;Sept-Îles
CYZW;YZW;Teslin Airport;60.17279815673828;-132.7429962158203;2313;NA;CA;CA-YT;Teslin
CYZX;YZX;CFB Greenwood;44.98440170288086;-64.91690063476562;92;NA;CA;CA-NS;Greenwood
CZAC;ZAC;York Landing Airport;56.08940124511719;-96.08920288085938;621;NA;CA;CA-MB;York Landing
CZAM;YSN;Shuswap Regional Airport;50.682802;-119.228996;1751;NA;CA;CA-BC;Salmon Arm
CZBB;YDT;Boundary Bay Airport;49.0742;-123.012001;6;NA;CA;CA-BC;Vancouver
CZBD;ILF;Ilford Airport;56.05163;-95.620523;642;NA;CA;CA-MB;Ilford
CZBF;ZBF;Bathurst Airport;47.6297;-65.738899;193;NA;CA;CA-NB;Bathurst
CZBM;ZBM;Bromont (Roland Désourdy) Airport;45.290798;-72.741402;375;NA;CA;CA-QC;Bromont
CZEE;KES;Kelsey Airport;56.0374984741;-96.50969696039999;600;NA;CA;CA-MB;Kelsey
CZEM;ZEM;Eastmain River Airport;52.22639846801758;-78.52249908447266;24;NA;CA;CA-QC;Eastmain River
CZFA;ZFA;Faro Airport;62.20750045776367;-133.37600708007812;2351;NA;CA;CA-YT;Faro
CZFD;ZFD;Fond-Du-Lac Airport;59.33440017700195;-107.18199920654297;814;NA;CA;CA-SK;Fond-Du-Lac
CZFG;XPK;Pukatawagan Airport;55.7491989136;-101.26599884;958;NA;CA;CA-MB;Pukatawagan
CZFM;ZFM;Fort Mcpherson Airport;67.40750122070312;-134.86099243164062;116;NA;CA;CA-NT;Fort Mcpherson
CZFN;ZFN;Tulita Airport;64.909697;-125.572998;332;NA;CA;CA-NT;Tulita
CZGF;ZGF;Grand Forks Airport;49.015598;-118.431;1720;NA;CA;CA-BC;Grand Forks
CZGI;ZGI;Gods River Airport;54.839698791503906;-94.07859802246094;627;NA;CA;CA-MB;Gods River
CZGR;ZGR;Little Grand Rapids Airport;52.04560089111328;-95.4657974243164;1005;NA;CA;CA-MB;Little Grand Rapids
CZHP;ZHP;High Prairie Airport;55.3936004639;-116.474998474;1974;NA;CA;CA-AB;High Prairie
CZJ;CZJ;Corazón de Jesús Airport;9.4446;-78.5888;8;NA;PA;PA-KY;Corazón de Jesús and Narganá Islands
CZJG;ZJG;Jenpeg Airport;54.51890182495117;-98.04609680175781;729;NA;CA;CA-MB;Jenpeg
CZJN;ZJN;Swan River Airport;52.120602;-101.236;1100;NA;CA;CA-MB;Swan River
CZK;CZK;Cascade Locks State Airport;45.676599;-121.878879;151;NA;US;US-OR;Cascade Locks
CZKE;ZKE;Kashechewan Airport;52.282501220703125;-81.67780303955078;35;NA;CA;CA-ON;Kashechewan
CZLQ;YTD;Thicket Portage Airport;55.31890106201172;-97.70780181884766;678;NA;CA;CA-MB;Thicket Portage
CZMD;MSA;Muskrat Dam Airport;53.44139862060547;-91.76280212402344;911;NA;CA;CA-ON;Muskrat Dam
CZML;ZMH;South Cariboo Region / 108 Mile Airport;51.736099243199995;-121.333000183;3126;NA;CA;CA-BC;108 Mile
CZMN;PIW;Pikwitonei Airport;55.58890151977539;-97.16419982910156;630;NA;CA;CA-MB;Pikwitonei
CZMT;ZMT;Masset Airport;54.02750015258789;-132.125;25;NA;CA;CA-BC;Masset
CZN;CZN;Chisana Airport;62.0712013245;-142.04800415;3318;NA;US;US-AK;Chisana
CZNG;XPP;Poplar River Airport;52.9965258788;-97.2741937637;728;NA;CA;CA-MB;Poplar River
CZO;CZO;Chistochina Airport;62.5634994507;-144.669006348;1850;NA;US;US-AK;Chistochina
CZPB;ZPB;Sachigo Lake Airport;53.8911018371582;-92.19640350341797;876;NA;CA;CA-ON;Sachigo Lake
CZPC;WPC;Pincher Creek Airport;49.520599365200006;-113.997001648;3903;NA;CA;CA-AB;Pincher Creek
CZPO;ZPO;Pinehouse Lake Airport;55.5280990601;-106.582000732;1278;NA;CA;CA-SK;Pinehouse Lake
CZRJ;ZRJ;Round Lake (Weagamow Lake) Airport;52.943599700927734;-91.31279754638672;974;NA;CA;CA-ON;Round Lake
CZSJ;ZSJ;Sandy Lake Airport;53.06420135498047;-93.34439849853516;951;NA;CA;CA-ON;Sandy Lake
CZSN;XSI;South Indian Lake Airport;56.7928009033;-98.9072036743;951;NA;CA;CA-MB;South Indian Lake
CZST;ZST;Stewart Airport;55.935410448;-129.982434511;24;NA;CA;CA-BC;Stewart
CZSW;ZSW;Prince Rupert/Seal Cove Seaplane Base;54.33330154418945;-130.2830047607422;;NA;CA;CA-BC;
CZTA;YDV;Bloodvein River Airport;51.784568;-96.692305;721;NA;CA;CA-MB;Bloodvein River
CZTM;ZTM;Shamattawa Airport;55.8656005859375;-92.0813980102539;289;NA;CA;CA-MB;Shamattawa
CZUC;ZUC;Ignace Municipal Airport;49.428204;-91.720418;1435;NA;CA;CA-ON;Ignace
CZUM;ZUM;Churchill Falls Airport;53.5619010925293;-64.10639953613281;1442;NA;CA;CA-NL;Churchill Falls
CZWH;XLB;Lac Brochet Airport;58.6175003052;-101.46900177;1211;NA;CA;CA-MB;Lac Brochet
CZWL;ZWL;Wollaston Lake Airport;58.10689926147461;-103.1719970703125;1360;NA;CA;CA-SK;Wollaston Lake
D38;IUA;Canandaigua Airport;42.908902;-77.325226;814;NA;US;US-NY;Ontario County IDA
D66;DJN;Delta Junction Airport;64.0503997803;-145.716995239;1150;NA;US;US-AK;Delta Junction
DA14;MQV;Mostaganem Airport;35.904134;0.143337;732;AF;DZ;DZ-27;Mostaganem
DAAB;QLD;Blida Airport;36.503601;2.81417;535;AF;DZ;DZ-09;Blida
DAAD;BUJ;Bou Saada Airport;35.3325;4.20639;1506;AF;DZ;DZ-28;Ouled Sidi Brahim
DAAE;BJA;Soummam – Abane Ramdane Airport;36.712793;5.07857;20;AF;DZ;DZ-06;Béjaïa
DAAG;ALG;Houari Boumediene Airport;36.691002;3.21541;82;AF;DZ;DZ-16;Algiers
DAAJ;DJG;Djanet Inedbirene Airport;24.292801;9.45244;3176;AF;DZ;DZ-33;Djanet
DAAP;VVZ;Illizi Takhamalt Airport;26.7234992981;8.62265014648;1778;AF;DZ;DZ-33;Illizi
DAAS;QSF;Ain Arnat Airport;36.178100585900005;5.3244900703399995;3360;AF;DZ;DZ-19;Sétif
DAAT;TMR;Aguenar – Hadj Bey Akhamok Airport;22.8115005493;5.45107984543;4518;AF;DZ;DZ-11;Tamanrasset
DAAV;GJL;Jijel Ferhat Abbas Airport;36.7951011658;5.87361001968;36;AF;DZ;DZ-18;Jijel
DAAY;MZW;Mecheria Airport;33.535900116;-0.242353007197;3855;AF;DZ;DZ-45;Mecheria
DABB;AAE;Rabah Bitat Airport;36.826781;7.81334;16;AF;DZ;DZ-23;Annaba
DABC;CZL;Mohamed Boudiaf International Airport;36.2760009765625;6.620389938354492;2265;AF;DZ;DZ-25;Constantine
DABO;QMH;Oum El Bouaghi Air Base;35.8797;7.2708;2980;AF;DZ;DZ-04;Oum El Bouaghi
DABS;TEE;Cheikh Larbi Tébessi Airport;35.4315986633;8.12071990967;2661;AF;DZ;DZ-12;Tébessi
DABT;BLJ;Batna Mostefa Ben Boulaid Airport;35.752102;6.30859;2697;AF;DZ;DZ-05;Batna
DAF;DAF;Daup Airport;-4.7403;145.9515;280;OC;PG;PG-MPM;
DAFH;HRM;Hassi R'Mel Airport;32.930401;3.31154;2540;AF;DZ;DZ-03;Hassi R'Mel
DAFI;QDJ;Tsletsi Airport;34.6657;3.351;3753;AF;DZ;DZ-17;Djelfa
DAH;DAH;Dathina Airport;13.866884;46.133473;-2;AS;YE;YE-AB;Dathina
DAO;DAO;Dabo Airport;-8.431944444440001;147.843055556;118;OC;PG;PG-NPP;
DAOB;TID;Abdelhafid Boussouf Bou Chekif Airport;35.341099;1.46315;3245;AF;DZ;DZ-14;Tiaret
DAOF;TIN;Tindouf Airport;27.7003993988;-8.167099952700001;1453;AF;DZ;DZ-37;Tindouf
DAOI;CFK;Chlef Aboubakr Belkaid International Airport;36.217166;1.342237;463;AF;DZ;DZ-02;Chlef
DAOL;TAF;Oran Tafraoui Airport;35.5424;-0.532278;367;AF;DZ;DZ-31;Tafraoui
DAON;TLM;Zenata – Messali El Hadj Airport;35.0167007446;-1.45000004768;814;AF;DZ;DZ-13;Tlemcen
DAOO;ORN;Oran International Airport Ahmed Ben Bella;35.623901;-0.621183;295;AF;DZ;DZ-31;Oran
DAOR;CBH;Béchar Boudghene Ben Ali Lotfi Airport;31.645700454711914;-2.269860029220581;2661;AF;DZ;DZ-08;Béchar
DAOS;BFW;Sidi Bel Abbes Airport;35.1717987061;-0.593275010586;1614;AF;DZ;DZ-22;Sidi Bel Abbès
DAOV;MUW;Ghriss Airport;35.207699;0.147142;1686;AF;DZ;DZ-29;Ghriss
DAOY;EBH;El Bayadh Airport;33.721666666699996;1.0925;4493;AF;DZ;DZ-32;El Bayadh
DATG;INF;In Guezzam Airport;19.566999435424805;5.75;1312;AF;DZ;DZ-11;In Guezzam
DATM;BMW;Bordj Badji Mokhtar Airport;21.3778;0.92698;1303;AF;DZ;DZ-01;Bordj Badji Mokhtar
DAUA;AZR;Touat Cheikh Sidi Mohamed Belkebir Airport;27.837601;-0.186414;919;AF;DZ;DZ-01;Adrar
DAUB;BSK;Biskra - Mohamed Khider Airport;34.793301;5.73823;289;AF;DZ;DZ-07;Biskra
DAUE;ELG;El Golea Airport;30.571301;2.85959;1306;AF;DZ;DZ-47;El Menia
DAUG;GHA;Noumérat - Moufdi Zakaria Airport;32.38410186767578;3.794110059738159;1512;AF;DZ;DZ-47;Ghardaïa
DAUH;HME;Hassi Messaoud-Oued Irara Krim Belkacem Airport;31.673;6.14044;463;AF;DZ;DZ-30;Hassi Messaoud
DAUI;INZ;In Salah Airport;27.250999450699997;2.51202011108;896;AF;DZ;DZ-11;In Salah
DAUK;TGR;Touggourt Sidi Madhi Airport;33.06779861450195;6.088669776916504;279;AF;DZ;DZ-30;Touggourt
DAUL;LOO;Laghouat - Molay Ahmed Medeghri Airport;33.7644;2.92834;2510;AF;DZ;DZ-03;Laghouat
DAUO;ELU;Guemar Airport;33.5113983154;6.77679014206;203;AF;DZ;DZ-39;Guemar
DAUT;TMX;Timimoun Airport;29.2371006012;0.276033014059;1027;AF;DZ;DZ-01;Timimoun
DAUU;OGX;Ain Beida Airport;31.9172;5.41278;492;AF;DZ;DZ-30;Ouargla
DAUZ;IAM;Zarzaitine - In Aménas Airport;28.0515;9.64291;1847;AF;DZ;DZ-33;In Aménas
DBBB;COO;Cadjehoun Airport;6.357230186462402;2.384350061416626;19;AF;BJ;BJ-AQ;Cotonou
DBBD;DJA;Djougou Airport;9.69208333333;1.63777777778;1480;AF;BJ;BJ-DO;Djougou
DBBK;KDC;Kandi Airport;11.14479;2.940381;951;AF;BJ;BJ-AL;Kandi
DBBN;NAE;Natitingou Airport;10.376965;1.360507;1512;AF;BJ;BJ-AK;Natitingou
DBBP;PKO;Parakou Airport;9.35768985748291;2.609679937362671;1266;AF;BJ;BJ-BO;Parakou
DBBS;SVF;Savé Airport;8.018170356750488;2.4645800590515137;597;AF;BJ;BJ-CO;Savé
DBC;DBC;Baicheng Chang'an Airport;45.505278;123.019722;480;AS;CN;CN-22;Baicheng
DBK;DBK;Dutch Bay SPB;8.273;79.756;0;AS;LK;LK-6;Kalpitiya Island
DBP;DBP;Debepare Airport;-6.30861111111;141.905555556;360;OC;PG;PG-WPD;Debepare
DBU;DBU;Dambulu Oya Tank Seaplane Base;7.8604;80.6304;535;AS;LK;LK-2;Dambulla
DCG;DCG;Dubai Creek SPB;25.2422222222;55.3313888889;;AS;AE;AE-DU;Dubai
DCK;DCK;Dahl Creek Airport;66.9432983398;-156.904998779;260;NA;US;US-AK;Dahl Creek
DDM;DDM;Dodoima Airport;-8.17736111111;147.809444444;75;OC;PG;PG-NPP;
DEQ;DEQ;Deqing Moganshan Airport;30.504264;120.107388;;AS;CN;CN-33;Huzhou
DER;DER;Derim Airport;-6.14472222222;147.107222222;4850;OC;PG;PG-MPL;Derim
DEX;DEX;Nop Goliat Airport;-4.8557;139.482006;198;AS;ID;ID-PA;Dekai - Yahukimo
DFCA;XKY;Kaya Airport;13.067000389099121;-1.100000023841858;984;AF;BF;BF-SMT;Kaya
DFCC;OUG;Ouahigouya Airport;13.567000389099121;-2.4170000553131104;1106;AF;BF;BF-YAT;Ouahigouya
DFCJ;XDJ;Djibo Airport;14.100000381469727;-1.6330000162124634;1001;AF;BF;BF-SOM;Djibo
DFCL;XLU;Leo Airport;11.100000381469727;-2.0999999046325684;1181;AF;BF;BF-SIS;Leo
DFCP;PUP;Po Airport;11.149999618530273;-1.149999976158142;1050;AF;BF;BF-NAO;Po
DFEA;XBO;Boulsa Airport;12.649999618530273;-0.5669999718666077;984;AF;BF;BF-NAM;Boulsa
DFEB;XBG;Bogande Airport;12.982999801635742;-0.16699999570846558;984;AF;BF;BF-GNA;Bogande
DFED;DIP;Diapaga Airport;12.060324;1.784631;951;AF;BF;BF-TAP;Diapaga
DFEE;DOR;Dori Airport;14.032999992370605;-0.032999999821186066;919;AF;BF;BF-SEN;Dori
DFEF;FNG;Fada N'gourma Airport;12.032999992370605;0.3499999940395355;1011;AF;BF;BF-GOU;Fada N'gourma
DFEG;XGG;Gorom-Gorom Airport;14.449999809265137;-0.2329999953508377;935;AF;BF;BF-OUD;Gorom-Gorom
DFEL;XKA;Kantchari Airport;12.464046;1.492939;879;AF;BF;BF-TAP;Kantchari
DFEM;TMQ;Tambao Airport;14.790874;0.039492;820;AF;BF;BF-OUD;Tambao
DFEP;XPA;Pama Airport;11.25;0.699999988079071;699;AF;BF;BF-KMP;Pama
DFER;ARL;Arly Airport;11.597000122070312;1.4830000400543213;761;AF;BF;BF-TAP;Arly
DFES;XSE;Sebba Airport;13.449999809265137;0.5170000195503235;886;AF;BF;BF-SEN;Sebba
DFET;TEG;Tenkodogo Airport;11.801149;-0.371377;1017;AF;BF;BF-BLG;Tenkodogo
DFEZ;XZA;Zabré Airport;11.166999816894531;-0.6169999837875366;886;AF;BF;BF-BLG;Zabré
DFFD;OUA;Ouagadougou Airport;12.3532;-1.51242;1037;AF;BF;BF-KAD;Ouagadougou
DFOB;BNR;Banfora Airport;10.682999610900879;-4.7170000076293945;984;AF;BF;BF-COM;Banfora
DFOD;DGU;Dedougou Airport;12.458999633789062;-3.490000009536743;984;AF;BF;BF-MOU;Dedougou
DFOG;XGA;Gaoua Airport;10.384059;-3.163454;1099;AF;BF;BF-PON;Gaoua
DFON;XNU;Nouna Airport;12.75;-3.867000103;886;AF;BF;BF-KOS;Nouna
DFOO;BOY;Bobo Dioulasso Airport;11.160099983215332;-4.33096981048584;1511;AF;BF;BF-HOU;Bobo Dioulasso
DFOT;TUQ;Tougan Airport;13.067000389099121;-3.066999912261963;984;AF;BF;BF-SOR;Tougan
DFOU;XDE;Diebougou Airport;10.949999809265137;-3.25;984;AF;BF;BF-BGR;Diebougou
DFOY;XAR;Aribinda Airport;14.217000007600001;-0.883000016212;1122;AF;BF;BF-SOM;Aribinda
DGAA;ACC;Kotoka International Airport;5.605189800262451;-0.16678600013256073;205;AF;GH;GH-AA;Accra
DGLE;TML;Tamale Airport;9.55718994140625;-0.8632140159606934;553;AF;GH;GH-NP;Tamale
DGM;DGM;Dandugama Seaplane Base;7.1079;79.8721;0;AS;LK;LK-1;Colombo
DGSI;KMS;Kumasi Airport;6.714560031890869;-1.5908199548721313;942;AF;GH;GH-AH;Kumasi
DGSN;NYI;Sunyani Airport;7.36183;-2.32876;1014;AF;GH;GH-BA;Sunyani
DGTK;TKD;Takoradi Airport;4.896059989929199;-1.7747600078582764;21;AF;GH;GH-WP;Sekondi-Takoradi
DHB;DHB;Deer Harbor SPB;48.6166666667;-123.002777778;;NA;US;US-WA;Deer Harbor
DHG;DHG;Dalnegorsk Airport;44.558748;135.490005;833;EU;RU;RU-PRI;Dalnegorsk
DHL;DHL;Ad-Dali Airport;13.73846;44.72719;;AS;YE;YE-DA;Ad-Dali
DIAO;ABO;Aboisso Airport;5.461944;-3.234722;95;AF;CI;CI-CM;Aboisso
DIAP;ABJ;Félix-Houphouët-Boigny International Airport;5.26139;-3.92629;21;AF;CI;CI-AB;Abidjan
DIAU;OGO;Abengourou Airport;6.715559959411621;-3.4702799320220947;676;AF;CI;CI-CM;Abengourou
DIBI;BXI;Boundiali Airport;9.532999992370605;-6.4670000076293945;1286;AF;CI;CI-SV;Boundiali
DIBK;BYK;Bouaké Airport;7.7388;-5.07367;1230;AF;CI;CI-VB;Bouaké
DIBN;BQO;Bouna Airport;9.27750015258789;-3.025279998779297;1148;AF;CI;CI-ZZ;Bouna
DIBU;BDK;Soko Airport;8.017219543457031;-2.7619400024414062;1247;AF;CI;CI-ZZ;Bondoukou
DIDK;DIM;Dimbokro Airport;6.651669979095459;-4.640560150146484;344;AF;CI;CI-LC;Dimbokro
DIDL;DJO;Daloa Airport;6.792809963226318;-6.473189830780029;823;AF;CI;CI-SM;
DIGA;GGN;Gagnoa Airport;6.102855;-5.986809;732;AF;CI;CI-SM;Gagnoa
DIGL;GGO;Guiglo Airport;6.534711;-7.526847;722;AF;CI;CI-MG;Guiglo
DIGN;BBV;Nero-Mer Airport;4.64341306686;-6.923961639400001;20;AF;CI;CI-BS;Grand-Béréby
DIKO;HGO;Korhogo Airport;9.38718032837;-5.55666017532;1214;AF;CI;CI-SV;Korhogo
DIMN;MJC;Man Airport;7.272069931030273;-7.58735990524292;1089;AF;CI;CI-MG;
DIOD;KEO;Odienne Airport;9.5;-7.566999912261963;1365;AF;CI;CI-DN;Odienne
DIOF;OFI;Ouango Fitini Airport;9.600000381469727;-4.050000190734863;974;AF;CI;CI-ZZ;Ouango Fitini
DISG;SEO;Séguéla Airport;7.96;-6.644167;1056;AF;CI;CI-WR;Séguéla
DISP;SPY;San Pedro Airport;4.746719837188721;-6.660820007324219;26;AF;CI;CI-BS;
DISS;ZSS;Sassandra Airport;4.928888;-6.133156;203;AF;CI;CI-BS;Sassandra
DITB;TXU;Tabou Airport;4.437809467315674;-7.362728118896484;39;AF;CI;CI-BS;Tabou
DITN;TOZ;Mahana Airport;8.2934;-7.674;1583;AF;CI;CI-WR;Touba
DIW;DIW;Mawella Lagoon Seaplane Base;5.990192;80.733129;16;AS;LK;LK-3;Dickwella
DIYO;ASK;Yamoussoukro Airport;6.9031701088;-5.36558008194;699;AF;CI;CI-YM;Yamoussoukro
DLR;DLR;Dalnerechensk Airport;45.877949;133.735822;272;EU;RU;RU-PRI;Dalnerechensk
DN57;DKA;Katsina Airport;13.0078;7.66045;1660;AF;NG;NG-KT;Katsina
DNAA;ABV;Nnamdi Azikiwe International Airport;9.006790161132812;7.263169765472412;1123;AF;NG;NG-FC;Abuja
DNAI;QUO;Akwa Ibom International Airport;4.8725;8.093;170;AF;NG;NG-AK;Uyo
DNAK;AKR;Akure Airport;7.246739864349365;5.3010101318359375;1100;AF;NG;NG-ON;Akure
DNAS;ABB;Asaba International Airport;6.204167;6.665278;305;AF;NG;NG-DE;Asaba
DNBC;BCU;Sir Abubakar Tafawa Balewa International Airport;10.482833;9.744;1965;AF;NG;NG-BA;Bauchi
DNBE;BNI;Benin Airport;6.316979885101318;5.5995001792907715;258;AF;NG;NG-ED;Benin
DNCA;CBQ;Margaret Ekpo International Airport;4.976019859313965;8.347200393676758;210;AF;NG;NG-CR;Calabar
DNEN;ENU;Akanu Ibiam International Airport;6.474269866943359;7.561960220336914;466;AF;NG;NG-EN;Enegu
DNIB;IBA;Ibadan Airport;7.362460136413574;3.97832989692688;725;AF;NG;NG-OY;Ibadan
DNIL;ILR;Ilorin International Airport;8.440210342407227;4.493919849395752;1126;AF;NG;NG-KW;Ilorin
DNIM;QOW;Sam Mbakwe International Airport;5.427060127258301;7.206029891967773;373;AF;NG;NG-IM;Owerri
DNJO;JOS;Yakubu Gowon Airport;9.639829635620117;8.869050025939941;4232;AF;NG;NG-PL;Jos
DNKA;KAD;Kaduna Airport;10.696000099182129;7.320109844207764;2073;AF;NG;NG-KD;Kaduna
DNKN;KAN;Mallam Aminu International Airport;12.0476;8.52462;1562;AF;NG;NG-KN;Kano
DNMA;MIU;Maiduguri International Airport;11.855299949645996;13.080900192260742;1099;AF;NG;NG-BO;Maiduguri
DNMK;MDI;Makurdi Airport;7.70388;8.61394;371;AF;NG;NG-BE;Makurdi
DNMM;LOS;Murtala Muhammed International Airport;6.5773701667785645;3.321160078048706;135;AF;NG;NG-LA;Lagos
DNMN;MXJ;Minna Airport;9.652170181274414;6.462259769439697;834;AF;NG;NG-NI;Minna
DNPO;PHC;Port Harcourt International Airport;5.0154900550842285;6.94959020614624;87;AF;NG;NG-RI;Port Harcourt
DNSO;SKO;Sadiq Abubakar III International Airport;12.916299819946289;5.207190036773682;1010;AF;NG;NG-SO;Sokoto
DNYO;YOL;Yola Airport;9.257550239562988;12.430399894714355;599;AF;NG;NG-AD;Yola
DNZA;ZAR;Zaria Airport;11.1302;7.68581;2170;AF;NG;NG-KD;Zaria
DOO;DOO;Dorobisoro Airport;-9.461855;147.920907;1767;OC;PG;PG-CPM;Dorobisoro
DPT;DPT;Deputatskiy Airport;69.392503;139.890012;950;EU;RU;RU-SA;Deputatskiy
DQA;DQA;Daqing Sa'ertu Airport;46.750883;125.138642;496;AS;CN;CN-23;Daqing
DRRM;MFQ;Maradi Airport;13.5024995803833;7.1267499923706055;1240;AF;NE;NE-4;Maradi
DRRN;NIM;Diori Hamani International Airport;13.4815;2.18361;732;AF;NE;NE-8;Niamey
DRRT;THZ;Tahoua Airport;14.875699996948242;5.265359878540039;1266;AF;NE;NE-5;Tahoua
DRZA;AJY;Mano Dayak International Airport;16.965999603271484;8.000109672546387;1657;AF;NE;NE-1;Agadez
DRZL;RLT;Arlit Airport;18.7903995514;7.36595010757;1443;AF;NE;NE-1;Arlit
DRZR;ZND;Zinder Airport;13.779000282287598;8.983759880065918;1516;AF;NE;NE-7;Zinder
DSG;DSG;Dilasag Airport;16.445833333299998;122.206805556;60;AS;PH;PH-AUR;Dilasag
DTKA;TBJ;Tabarka 7 Novembre Airport;36.97999954223633;8.87693977355957;230;AF;TN;TN-32;Tabarka
DTMB;MIR;Monastir Habib Bourguiba International Airport;35.75809860229492;10.75469970703125;9;AF;TN;TN-52;Monastir
DTNH;NBE;Enfidha - Hammamet International Airport;36.075833;10.438611;21;AF;TN;TN-51;Enfidha
DTTA;TUN;Tunis Carthage International Airport;36.85100173950195;10.22719955444336;22;AF;TN;TN-11;Tunis
DTTF;GAF;Gafsa Ksar International Airport;34.422000885009766;8.822500228881836;1060;AF;TN;TN-71;Gafsa
DTTG;GAE;Gabès Matmata International Airport;33.733691;9.91941;407;AF;TN;TN-81;Gabès
DTTJ;DJE;Djerba Zarzis International Airport;33.875;10.775500297546387;19;AF;TN;TN-82;Djerba
DTTR;EBM;El Borma Airport;31.704299926757812;9.254619598388672;827;AF;TN;TN-83;El Borma
DTTX;SFA;Sfax Thyna International Airport;34.71799850463867;10.690999984741211;85;AF;TN;TN-61;Sfax
DTTZ;TOE;Tozeur Nefta International Airport;33.939701080322266;8.110560417175293;287;AF;TN;TN-72;Tozeur
DVD;DVD;Andavadoaka Airport;-22.06608;43.259573;30;AF;MG;MG-U;Andavadoaka
DWO;DWO;Diyawanna Oya Seaplane Base;6.906585;79.909;10;AS;LK;LK-1;Sri Jayawardenepura Kotte
DWR;DWR;Dwyer Airport;31.091265;64.066053;2380;AS;AF;AF-HEL;Reg
DXNG;LRL;Niamtougou International Airport;9.767330169677734;1.091249942779541;1515;AF;TG;TG-K;Niamtougou
DXXX;LFW;Lomé–Tokoin International Airport;6.16561;1.25451;72;AF;TG;TG-M;Lomé
DZH;DZH;Dazhou Jinya Airport;31.0448;107.43723;;AS;CN;CN-51;Dazhou Shi
EAL;EAL;Elenak Airport;9.319305555560002;166.847777778;16;OC;MH;MH-KWA;Mejato Island
EBAW;ANR;Antwerp International Airport (Deurne);51.1894;4.46028;39;EU;BE;BE-VAN;Antwerp
EBBR;BRU;Brussels Airport;50.901401519800004;4.48443984985;184;EU;BE;BE-BRU;Brussels
EBCI;CRL;Brussels South Charleroi Airport;50.459202;4.45382;614;EU;BE;BE-WHT;Brussels
EBKT;KJK;Wevelgem Airport;50.8172;3.20472;55;EU;BE;BE-VWV;Wevelgem
EBLG;LGG;Liège Airport;50.637402;5.44322;659;EU;BE;BE-WLG;Liège
EBO;EBO;Ebon Airport;4.5982;168.752;8;OC;MH;MH-EBO;Ebon Atoll
EBOS;OST;Ostend-Bruges International Airport;51.1998;2.874673;13;EU;BE;BE-VWV;Ostend
EBZR;OBL;Zoersel (Oostmalle) Airfield;51.2647;4.754505;53;EU;BE;BE-VAN;Zoersel
EC-MZD;MZD;Méndez Airport;-2.733330011367798;-78.31670379638672;1770;SA;EC;EC-S;Santiago de Méndez
EDA;EDA;Edna Bay Seaplane Base;55.949653;-133.661012;0;NA;US;US-AK;Edna Bay
EDAC;AOC;Altenburg-Nobitz Airport;50.981945;12.506389;640;EU;DE;DE-TH;Altenburg
EDAH;HDF;Heringsdorf Airport;53.8787002563;14.152299881;93;EU;DE;DE-MV;Heringsdorf
EDAU;IES;Riesa-Göhlis Airport;51.2936096191;13.3561105728;322;EU;DE;DE-SN;Riesa
EDAX;REB;Rechlin-Lärz Airport;53.306388855;12.7522220612;220;EU;DE;DE-MV;Lärz
EDBC;CSO;Cochstedt Airport;51.8563995361;11.42029953;594;EU;DE;DE-ST;Magdeburg
EDBH;BBH;Barth Airport;54.338253;12.710515;23;EU;DE;DE-MV;
